"관리기관명",소재지도로명주소,소재지지번주소,설치목적구분,카메라대수,카메라화소수,촬영방면정보,보관일수,설치년월,관리기관전화번호,위도,경도,데이터기준일자
"서울특별시동작구청",서울특별시 동작구 장승배기로23길 10,,생활방범,3,,,,,02-820-2906,37.510140,126.939450,2019-05-16
"서울특별시동작구청",서울특별시 동작구 노량진로8길 40 마당쇠숯불갈비,,생활방범,3,,,,,02-820-2906,37.512400,126.937590,2019-05-16
"서울특별시동작구청",서울특별시 동작구 장승배기로18길 27,,생활방범,3,,,,,02-820-2906,37.507400,126.941600,2019-05-16
"서울특별시동작구청",서울특별시 동작구 만양로14다길 7,,생활방범,1,,,,,02-820-2906,37.511300,126.945310,2019-05-16
"서울특별시동작구청",서울특별시 동작구 장승배기로22길 44(노량진2동 226-15),,생활방범,1,,,,,02-820-2906,37.508600,126.941560,2019-05-16
"서울특별시동작구청",서울특별시 동작구 장승배기로19다길 24(노량진2동 302-27),,생활방범,1,,,,,02-820-2906,37.509270,126.937570,2019-05-16
"서울특별시동작구청",서울특별시 동작구 장승배기로24가길 39(노량진1동 232-52),,생활방범,1,,,,,02-820-2906,37.511250,126.942070,2019-05-16
"서울특별시동작구청",서울특별시 동작구 노량진로26길 65(노량진1동 485-2),,생활방범,1,,,,,02-820-2906,37.509700,126.955520,2019-05-16
"서울특별시동작구청",서울특별시 동작구 노량진로18길 20(노량진1동 408-1),,생활방범,3,,,,,02-820-2906,37.511990,126.950970,2019-05-16
"서울특별시동작구청",서울특별시 동작구 상도로60길 35(상도1동 126-65) 동녘빌라,,생활방범,3,,,,,02-820-2906,37.492260,126.954600,2019-05-16
"서울특별시동작구청",서울특별시 동작구 상도로67길 20(상도1동 504-13) 할인마트,,생활방범,4,,,,,02-820-2906,37.494560,126.956530,2019-05-16
"서울특별시동작구청",서울특별시 동작구 상도로41가길 6(상도1동 465),,생활방범,4,,,,,02-820-2906,37.502510,126.950150,2019-05-16
"서울특별시동작구청",서울특별시 동작구 상도로 41길 50(상도1동 440),,생활방범,4,,,,,02-820-2906,37.502510,126.951850,2019-05-16
"서울특별시동작구청",서울특별시 동작구 상도로47다길 32(상도1동 319-1),,생활방범,4,,,,,02-820-2906,37.501580,126.953160,2019-05-16
"서울특별시동작구청",서울특별시 동작구 상도로56길 6(상도1동 473-7),,생활방범,4,,,,,02-820-2906,37.496130,126.952590,2019-05-16
"서울특별시동작구청",서울특별시 동작구 상도로15마길 22(상도2동 356-85) 서진파크빌라,,생활방범,4,,,,,02-820-2906,37.503380,126.933610,2019-05-16
"서울특별시동작구청",서울특별시 동작구 상도로15아길 18(상도2동 361-52) 에비앙 엘리지,,생활방범,4,,,,,02-820-2906,37.504270,126.934640,2019-05-16
"서울특별시동작구청",서울특별시 동작구 상도로26가길 8(상도2동 183-22) 오륙도해물탕,,생활방범,4,,,,,02-820-2906,37.503640,126.938270,2019-05-16
"서울특별시동작구청",서울특별시 동작구 만양로1길 18(상도2동 22-43),,생활방범,5,,,,,02-820-2906,37.506360,126.946480,2019-05-16
"서울특별시동작구청",서울특별시 동작구 대방동2길 38,,생활방범,3,,,,,02-820-2906,37.502700,126.927740,2019-05-16
"서울특별시동작구청",서울특별시 동작구 국사봉10길 20(상도3동 299-109) 그린빌라,,생활방범,4,,,,,02-820-2906,37.495280,126.931110,2019-05-16
"서울특별시동작구청",서울특별시 동작구 성대로6가길 41(상도3동 256-219),,생활방범,4,,,,,02-820-2906,37.496950,126.933480,2019-05-16
"서울특별시동작구청",서울특별시 동작구 국사봉5길 1(상도3동 304-6),,생활방범,4,,,,,02-820-2906,37.497760,126.930220,2019-05-16
"서울특별시동작구청",서울특별시 동작구 성대로21가길 29(상도4동 244-47) 한아름슈퍼,,생활방범,3,,,,,02-820-2906,37.499270,126.935080,2019-05-16
"서울특별시동작구청",서울특별시 동작구 성대로10길 55(상도4동 279-52) 행복슈퍼,,생활방범,4,,,,,02-820-2906,37.495930,126.936430,2019-05-16
"서울특별시동작구청",서울특별시 동작구 성대로31길 33(상도4동 202-221),,생활방범,4,,,,,02-820-2906,37.500230,126.938810,2019-05-16
"서울특별시동작구청",서울특별시 동작구 양녕로28길 54(상도4동 211-132) 구립우리어린이집,,생활방범,5,,,,,02-820-2906,37.498070,126.946700,2019-05-16
"서울특별시동작구청",서울특별시 동작구 서달로8가길2(흑석동 93-147),,생활방범,3,,,,,02-820-2906,37.505870,126.961820,2019-05-16
"서울특별시동작구청",서울특별시 동작구 서달로10길 64(흑석동 84-10),,생활방범,4,,,,,02-820-2906,37.504230,126.962920,2019-05-16
"서울특별시동작구청",서울특별시 동작구 흑석로3길 38-1(흑석동 200-12),,생활방범,3,,,,,02-820-2906,37.508550,126.956000,2019-05-16
"서울특별시동작구청",서울특별시 동작구 서달로6길 19(흑석동 79-24),,생활방범,4,,,,,02-820-2906,37.503290,126.961870,2019-05-16
"서울특별시동작구청",서울특별시 동작구 대방동3길 39,,생활방범,4,,,,,02-820-2906,37.501290,126.925410,2019-05-16
"서울특별시동작구청",서울특별시 동작구 대방동2길 22,,생활방범,4,,,,,02-820-2906,37.501630,126.928500,2019-05-16
"서울특별시동작구청",서울특별시 동작구 등용로4길 43(대방동 13-4),,생활방범,4,,,,,02-820-2906,37.507540,126.934880,2019-05-16
"서울특별시동작구청",서울특별시 동작구 여의대방로62길 14(대방동 101-5)  주정차-24 같이,,생활방범,4,,,,,02-820-2906,37.513960,126.927950,2019-05-16
"서울특별시동작구청",서울특별시 동작구 대방동 9길 14(대방동 391-249),,생활방범,4,,,,,02-820-2906,37.502110,126.926470,2019-05-16
"서울특별시동작구청",서울특별시 동작구 여의대방로24라길 13(대방동 415-47),,생활방범,3,,,,,02-820-2906,37.498490,126.922410,2019-05-16
"서울특별시동작구청",서울특별시 동작구 신대방2나길 1(신대방1동 621-1) 경농상회 앞,,생활방범,3,,,,,02-820-2906,37.488910,126.912850,2019-05-16
"서울특별시동작구청",서울특별시 동작구 신대방1길 72(신대방1동 696-4),,생활방범,3,,,,,02-820-2906,37.485880,126.907860,2019-05-16
"서울특별시동작구청",서울특별시 동작구 신대방2길 12,,생활방범,3,,,,,02-820-2906,37.488200,126.913850,2019-05-16
"서울특별시동작구청",서울특별시 동작구 신대방2길 14-19,,생활방범,2,,,,,02-820-2906,37.489170,126.915640,2019-05-16
"서울특별시동작구청",서울특별시 동작구 신대방14길 15(신대방1동 600-57) 천안슈퍼 부근,,생활방범,4,,,,,02-820-2906,37.489690,126.911140,2019-05-16
"서울특별시동작구청",서울특별시 동작구 신대방14가길 47(신대방1동 632-58),,생활방범,3,,,,,02-820-2906,37.489870,126.913340,2019-05-16
"서울특별시동작구청",서울특별시 동작구 여의대방로22카길 47(신대방2동 360-186) 로얄빌라,,생활방범,3,,,,,02-820-2906,37.496140,126.925830,2019-05-16
"서울특별시동작구청",서울특별시 동작구 국사봉2길 29(신대방동 339-21),,생활방범,3,,,,,02-820-2906,37.497140,126.928480,2019-05-16
"서울특별시동작구청",서울특별시 동작구 서울특별시 동작구 보라매로9길 12(신대방2동 344-88),,생활방범,4,,,,,02-820-2906,37.495000,126.926440,2019-05-16
"서울특별시동작구청",서울특별시 동작구 여의대방로22라길 23(신대방2동 366-131),,생활방범,5,,,,,02-820-2906,37.495320,126.923360,2019-05-16
"서울특별시동작구청",서울특별시 동작구 동작대로29가길 18(사당2동 89-52),,생활방범,3,,,,,02-820-2906,37.488730,126.981510,2019-05-16
"서울특별시동작구청",서울특별시 동작구 동작대로 43길 35 (사당2동 102-7) 청남빌라,,생활방범,4,,,,,02-820-2906,37.497180,126.980610,2019-05-16
"서울특별시동작구청",서울특별시 동작구 동작대로35가길 56(사당2동 68-18) 현대슈퍼 앞,,생활방범,3,,,,,02-820-2906,37.491330,126.978750,2019-05-16
"서울특별시동작구청",서울특별시 동작구 동작대로27길 38(사당2동 129-11),,생활방범,4,,,,,02-820-2906,37.487470,126.979920,2019-05-16
"서울특별시동작구청",서울특별시 동작구 동작대로29길 63-1(사당2동 127-40),,생활방범,3,,,,,02-820-2906,37.488670,126.978650,2019-05-16
"서울특별시동작구청",서울특별시 동작구 남부순환로257가길 32(사당1동 419-24) 서안주택,,생활방범,1,,,,,02-820-2906,37.478800,126.975570,2019-05-16
"서울특별시동작구청",서울특별시 동작구 남부순환로259길 10(사당1동 1050-2) 홈플러스 앞,,생활방범,3,,,,,02-820-2906,37.476410,126.972530,2019-05-16
"서울특별시동작구청",서울특별시 동작구 사당로20길 63(사당1동 431-4),,생활방범,1,,,,,02-820-2906,37.480340,126.975620,2019-05-16
"서울특별시동작구청",서울특별시 동작구 남부순환로265길 21(사당1동 1048-19),,생활방범,4,,,,,02-820-2906,37.477170,126.974710,2019-05-16
"서울특별시동작구청",서울특별시 동작구 사당로29길 26(사당3동 141-97) 보람아트빌,,생활방범,3,,,,,02-820-2906,37.485540,126.978260,2019-05-16
"서울특별시동작구청",서울특별시 동작구 동작대로35길 43(사당2동 69-13),,생활방범,1,,,,,02-820-2906,37.491440,126.980310,2019-05-16
"서울특별시동작구청",서울특별시 동작구 사당로27길 12(사당3동 141-160),,생활방범,5,,,,,02-820-2906,37.484970,126.978910,2019-05-16
"서울특별시동작구청",서울특별시 동작구 사당로9나길7(사당3동 220-38),,생활방범,4,,,,,02-820-2906,37.486130,126.970310,2019-05-16
"서울특별시동작구청",서울특별시 동작구 솔밭로 74-1(사당5동 235-61) 구립우리어린이집,,생활방범,3,,,,,02-820-2906,37.483100,126.967270,2019-05-16
"서울특별시동작구청",서울특별시 동작구 사당로2자길 2-15(사당5동 188-12),,생활방범,4,,,,,02-820-2906,37.489330,126.964630,2019-05-16
"서울특별시동작구청",서울특별시 동작구 사당로2차길 36(사당5동 206-16),,생활방범,5,,,,,02-820-2906,37.487020,126.965970,2019-05-16
"서울특별시동작구청",서울특별시 동작구 사당로14길 38(사당4동 278-50) 세븐일레븐,,생활방범,3,,,,,02-820-2906,37.482640,126.971010,2019-05-16
"서울특별시동작구청",서울특별시 동작구 사당로16길 14(사당4동 266-2),,생활방범,3,,,,,02-820-2906,37.482730,126.973480,2019-05-16
"서울특별시동작구청",서울특별시 동작구 남부순환로255라길 4(사당4동 303-27),,생활방범,4,,,,,02-820-2906,37.477350,126.970340,2019-05-16
"서울특별시동작구청",서울특별시 동작구 사당로20다길 15(사당4동 316-32),,생활방범,4,,,,,02-820-2906,37.480670,126.973500,2019-05-16
"서울특별시동작구청",서울특별시 동작구 노량진로14길 29(노량진1동 83-7) 은하맨션 앞,,생활방범,4,,,,,02-820-2906,37.512360,126.942530,2019-05-16
"서울특별시동작구청",서울특별시 동작구 노량진로30길 55(노량진1동 43-4) 본동종합사회복지관 인근,,생활방범,4,,,,,02-820-2906,37.510950,126.956850,2019-05-16
"서울특별시동작구청",서울특별시 동작구 상도로47길 8(상도1동 464-33) 장안마트 앞,,생활방범,4,,,,,02-820-2906,37.499690,126.951370,2019-05-16
"서울특별시동작구청",서울특별시 동작구 매봉로 37(상도1동 512) 예담어린이집 앞,,생활방범,4,,,,,02-820-2906,37.506510,126.950990,2019-05-16
"서울특별시동작구청",서울특별시 동작구 상도로 119 (상도3동 352-1) 앞,,생활방범,4,,,,,02-820-2906,37.501460,126.933040,2019-05-16
"서울특별시동작구청",서울특별시 동작구 양녕로28길 8(상도4동 211-207) 에덴빌라 앞,,생활방범,3,,,,,02-820-2906,37.498970,126.944620,2019-05-16
"서울특별시동작구청",서울특별시 동작구 성대로17길 78(상도동 244-52),,생활방범,4,,,,,02-820-2906,37.500510,126.934250,2019-05-16
"서울특별시동작구청",서울특별시 동작구 현충로22길 52(흑석동 276-12) 명성슈퍼 앞,,생활방범,4,,,,,02-820-2906,37.504840,126.971260,2019-05-16
"서울특별시동작구청",서울특별시 동작구 서달로14길 11(흑석동 6-21),,생활방범,3,,,,,02-820-2906,37.508020,126.963650,2019-05-16
"서울특별시동작구청",서울특별시 동작구 동작대로35길 71(사당2동 67-8),,생활방범,4,,,,,02-820-2906,37.492520,126.979120,2019-05-16
"서울특별시동작구청",서울특별시 동작구 사당로27길 86(사당3동 162-83),,생활방범,1,,,,,02-820-2906,37.486920,126.975570,2019-05-16
"서울특별시동작구청",서울특별시 동작구 사당로13길 50(사당3동 1131-12) 구립청소년독서실 뒤,,생활방범,1,,,,,02-820-2906,37.486280,126.971530,2019-05-16
"서울특별시동작구청",서울특별시 동작구 사당로20사길 29(사당4동 316-260) 남성중학교 뒤,,생활방범,3,,,,,02-820-2906,37.479110,126.972560,2019-05-16
"서울특별시동작구청",서울특별시 동작구 사당로2아길 2(사당5동 188-1),,생활방범,3,,,,,02-820-2906,37.490170,126.964580,2019-05-16
"서울특별시동작구청",서울특별시 동작구 사당로 170,,생활방범,1,,,,,02-820-2906,37.486620,126.967620,2019-05-16
"서울특별시동작구청",서울특별시 동작구 대방동길 30(대방동 392-1) 성은교회 앞,,생활방범,4,,,,,02-820-2906,37.502090,126.927890,2019-05-16
"서울특별시동작구청",서울특별시 동작구 등용로8가길 2(대방동 13-13) 미래하이츠빌 앞,,생활방범,3,,,,,02-820-2906,37.506890,126.933520,2019-05-16
"서울특별시동작구청",서울특별시 동작구 신대방1길 126(신대방1동 698-5) 중외제약 앞 골목길,,생활방범,1,,,,,02-820-2906,37.485260,126.904980,2019-05-16
"서울특별시동작구청",서울특별시 동작구 국사봉2나길 19(신대방2동 348-79),,생활방범,1,,,,,02-820-2906,37.496930,126.929570,2019-05-16
"서울특별시동작구청",서울특별시 동작구 여의대방로10길 100(신대방1동 717) 신동아 파밀리에아파트 진입로,,생활방범,1,,,,,02-820-2906,37.492060,126.914580,2019-05-16
"서울특별시동작구청",서울특별시 동작구 신대방2길 1(신대방1동 618-17) 수연약국 앞,,생활방범,4,,,,,02-820-2906,37.487680,126.912610,2019-05-16
"서울특별시동작구청",서울특별시 동작구 보라매로11길 14(신대방2동 366-40) 천주교 신대방동교회 내,,생활방범,1,,,,,02-820-2906,37.495510,126.926300,2019-05-16
"서울특별시동작구청",서울특별시 동작구 상도로 38길 52(상도1동 159-48),,생활방범,1,,,,,02-820-2906,37.501000,126.948620,2019-05-16
"서울특별시동작구청",서울특별시 동작구 국사봉16길 4(상도3동 299-156) 옆,,생활방범,1,,,,,02-820-2906,37.494580,126.932780,2019-05-16
"서울특별시동작구청",서울특별시 동작구 성대로16길 45-8,,생활방범,1,,,,,02-820-2906,37.496500,126.938820,2019-05-16
"서울특별시동작구청",서울특별시 동작구 양녕로22바길 66(상도4동 211-80),,생활방범,3,,,,,02-820-2906,37.497730,126.947170,2019-05-16
"서울특별시동작구청",서울특별시 동작구 서달로6길 93(흑석동 76-80) 도림사 입구 맞은편,,생활방범,1,,,,,02-820-2906,37.500250,126.962360,2019-05-16
"서울특별시동작구청",서울특별시 동작구 등용로10나길 13(대방동 44-311),,생활방범,3,,,,,02-820-2906,37.509790,126.934400,2019-05-16
"서울특별시동작구청",서울특별시 동작구 사당로2다길 84(사당5동 190-190),,생활방범,3,,,,,02-820-2906,37.489610,126.962950,2019-05-16
"서울특별시동작구청",서울특별시 동작구 노량진로26길 31(노량진1동 49),,생활방범,4,,,,,02-820-2906,37.511250,126.954870,2019-05-16
"서울특별시동작구청",서울특별시 동작구 흑석로5길 1-2(흑석동 204-171),,생활방범,4,,,,,02-820-2906,37.506780,126.957070,2019-05-16
"서울특별시동작구청",서울특별시 동작구 상도로47길 39(상도1동 338),,생활방범,4,,,,,02-820-2906,37.501090,126.952190,2019-05-16
"서울특별시동작구청",서울특별시 동작구 상도로34다길 26(상도2동 159-161),,생활방범,4,,,,,02-820-2906,37.502800,126.945830,2019-05-16
"서울특별시동작구청",서울특별시 동작구 성대로37길 44(상도2동 201-23),,생활방범,4,,,,,02-820-2906,37.500730,126.938990,2019-05-16
"서울특별시동작구청",서울특별시 동작구 국사봉8길 77(상도3동 301-40),,생활방범,4,,,,,02-820-2906,37.493450,126.931370,2019-05-16
"서울특별시동작구청",서울특별시 동작구 국사봉6길 39(상도3동 299-202),,생활방범,4,,,,,02-820-2906,37.495790,126.929980,2019-05-16
"서울특별시동작구청",서울특별시 동작구 양녕로25가길 24(상도4동 210-244),,생활방범,4,,,,,02-820-2906,37.499120,126.942450,2019-05-16
"서울특별시동작구청",서울특별시 동작구 사당로23길 170(사당3동 173-26),,생활방범,4,,,,,02-820-2906,37.489550,126.971340,2019-05-16
"서울특별시동작구청",서울특별시 동작구 동작대로35길 120(사당2동 56-27),,생활방범,4,,,,,02-820-2906,37.492630,126.976700,2019-05-16
"서울특별시동작구청",서울특별시 동작구 동작대로33길 23(사당2동 77-63),,생활방범,4,,,,,02-820-2906,37.489880,126.980820,2019-05-16
"서울특별시동작구청",서울특별시 동작구 동작대로7길 80(사당1동 1038-25),,생활방범,4,,,,,02-820-2906,37.477790,126.978260,2019-05-16
"서울특별시동작구청",서울특별시 동작구 사당로16라길 27(사당4동 278-109),,생활방범,4,,,,,02-820-2906,37.482030,126.969650,2019-05-16
"서울특별시동작구청",서울특별시 동작구 사당로8길 24(사당5동 231-16),,생활방범,4,,,,,02-820-2906,37.484120,126.968810,2019-05-16
"서울특별시동작구청",서울특별시 동작구 사당로20길 20(사당4동 321-109),,생활방범,3,,,,,02-820-2906,37.482190,126.975590,2019-05-16
"서울특별시동작구청",서울특별시 동작구 남부순환로271길 14(사당1동 1041-11)사당노인종합복지관 주변(주정차-23같이),,생활방범,4,,,,,02-820-2906,37.477320,126.980060,2019-05-16
"서울특별시동작구청",서울특별시 동작구 신대방16길 10(신대방1동 602-10),,생활방범,4,,,,,02-820-2906,37.490060,126.909710,2019-05-16
"서울특별시동작구청",서울특별시 동작구 여의대방로22자길 1(신대방2동 360-24),,생활방범,4,,,,,02-820-2906,37.496970,126.924360,2019-05-16
"서울특별시동작구청",서울특별시 동작구 장승배기로20길 4(노량진2동 229-135 이용국내과입구),,생활방범,4,,,,,02-820-2906,37.508380,126.940410,2019-05-16
"서울특별시동작구청",서울특별시 동작구 장승배기로19길 42 (노량진2동 302-173),,생활방범,4,,,,,02-820-2906,37.508060,126.937630,2019-05-16
"서울특별시동작구청",서울특별시 동작구 흑석로13길 7(흑석동 177-8),,생활방범,1,,,,,02-820-2906,37.508990,126.960980,2019-05-16
"서울특별시동작구청",서울특별시 동작구 동작대로25길 48(사당2동 708-490),,생활방범,3,,,,,02-820-2906,37.485210,126.979900,2019-05-16
"서울특별시동작구청",서울특별시 동작구 남부순환로267나길 14(사당1동 419-148),,생활방범,1,,,,,02-820-2906,37.478370,126.977290,2019-05-16
"서울특별시동작구청",서울특별시 동작구 사당로16자길 27(사당동 300-59),,생활방범,3,,,,,02-820-2906,37.479900,126.970260,2019-05-16
"서울특별시동작구청",서울특별시 동작구 상도로60가길 13(상도1동 126-51),,생활방범,1,,,,,02-820-2906,37.493470,126.954260,2019-05-16
"서울특별시동작구청",서울특별시 동작구 양녕로25마길 20(상도4동 210-166),,생활방범,5,,,,,02-820-2906,37.498070,126.941220,2019-05-16
"서울특별시동작구청",서울특별시 동작구 서울특별시 동작구 신대방길 19(신대방1동 691-36),,생활방범,1,,,,,02-820-2906,37.487840,126.911610,2019-05-16
"서울특별시동작구청",서울특별시 동작구 노량진로6라길 1(노량진2동 294-35),,생활방범,1,,,,,02-820-2906,37.508870,126.936010,2019-05-16
"서울특별시동작구청",서울특별시 동작구 노량진로32길 53 동작실버타운 뒤 용봉정근린공원 입구,,생활방범,4,,,,,02-820-2906,37.511580,126.957510,2019-05-16
"서울특별시동작구청",서울특별시 동작구 장승배기로19길 12(노량진2동 306-5),,생활방범,5,,,,,02-820-2906,37.508090,126.939250,2019-05-16
"서울특별시동작구청",서울특별시 동작구 상도로38길 12(상도1동 728),,생활방범,3,,,,,02-820-2906,37.502090,126.947540,2019-05-16
"서울특별시동작구청",서울특별시 동작구 장승배기로9나길 32-1(상도2동 200-83),,생활방범,3,,,,,02-820-2906,37.501370,126.938620,2019-05-16
"서울특별시동작구청",서울특별시 동작구 국사봉8길 70(상도3동 302-2),,생활방범,4,,,,,02-820-2906,37.493880,126.931080,2019-05-16
"서울특별시동작구청",서울특별시 동작구 양녕로20길 65(상도4동 214-228),,생활방범,4,,,,,02-820-2906,37.495270,126.944130,2019-05-16
"서울특별시동작구청",서울특별시 동작구 흑석로9길 24(흑석동 194-58),,생활방범,4,,,,,02-820-2906,37.507820,126.958880,2019-05-16
"서울특별시동작구청",서울특별시 동작구 남부순환로257가길 1(사당1동 446-5),,생활방범,3,,,,,02-820-2906,37.477390,126.972680,2019-05-16
"서울특별시동작구청",서울특별시 동작구 동작대로43길 1(사당2동 102-31),,생활방범,4,,,,,02-820-2906,37.496430,126.982460,2019-05-16
"서울특별시동작구청",서울특별시 동작구 사당로9라길 25(사당3동 220-67),,생활방범,4,,,,,02-820-2906,37.487180,126.970130,2019-05-16
"서울특별시동작구청",서울특별시 동작구 사당로16사길 59(사당4동 300-32),,생활방범,3,,,,,02-820-2906,37.479740,126.969390,2019-05-16
"서울특별시동작구청",서울특별시 동작구 사당로2차길 2(사당5동 202-28),,생활방범,4,,,,,02-820-2906,37.487720,126.964630,2019-05-16
"서울특별시동작구청",서울특별시 동작구 상도로 43-1(대방동 396-1),,생활방범,3,,,,,02-820-2906,37.500310,126.925300,2019-05-16
"서울특별시동작구청",서울특별시 동작구 신대방4길 17(신대방1동 618-33),,생활방범,3,,,,,02-820-2906,37.488630,126.911940,2019-05-16
"서울특별시동작구청",서울특별시 동작구 여의대방로22마길 37(신대방2동 364-170),,생활방범,5,,,,,02-820-2906,37.496720,126.922390,2019-05-16
"서울특별시동작구청",서울특별시 동작구 만양로 12길 57(노량진1동 205-193),,생활방범,3,,,,,02-820-2906,37.510580,126.948290,2019-05-16
"서울특별시동작구청",서울특별시 동작구 노량진로6다길 50(노량진2동 294-5),,생활방범,3,,,,,02-820-2906,37.508440,126.935890,2019-05-16
"서울특별시동작구청",서울특별시 동작구 상도로47가길 34(상도1동 425-1),,생활방범,3,,,,,02-820-2906,37.501220,126.950680,2019-05-16
"서울특별시동작구청",서울특별시 동작구 상도로15바길 22(상도2동 361-46),,생활방범,3,,,,,02-820-2906,37.504870,126.934730,2019-05-16
"서울특별시동작구청",서울특별시 동작구 성대로6길 32(상도3동 313-36),,생활방범,3,,,,,02-820-2906,37.498660,126.931450,2019-05-16
"서울특별시동작구청",서울특별시 동작구 성대로11길 69(상도4동 247-2),,생활방범,4,,,,,02-820-2906,37.500300,126.933540,2019-05-16
"서울특별시동작구청",서울특별시 동작구 서달로12길 86(흑석동 62-11),,생활방범,3,,,,,02-820-2906,37.504360,126.964220,2019-05-16
"서울특별시동작구청",서울특별시 동작구 남부순환로263길 18(사당1동 419-81),,생활방범,3,,,,,02-820-2906,37.477740,126.975790,2019-05-16
"서울특별시동작구청",서울특별시 동작구 동작대로33가길 27(사당2동 72-12),,생활방범,3,,,,,02-820-2906,37.490810,126.981920,2019-05-16
"서울특별시동작구청",서울특별시 동작구 사당로23아길 24(사당3동 180-26),,생활방범,3,,,,,02-820-2906,37.491500,126.969650,2019-05-16
"서울특별시동작구청",서울특별시 동작구 남부순환로255바길 8(사당4동 303-5),,생활방범,3,,,,,02-820-2906,37.478300,126.971560,2019-05-16
"서울특별시동작구청",서울특별시 동작구 솔밭로 102-1(사당5동 224-27),,생활방범,3,,,,,02-820-2906,37.485370,126.968170,2019-05-16
"서울특별시동작구청",서울특별시 동작구 대방동 15길 26(대방동 388-19),,생활방범,3,,,,,02-820-2906,37.502810,126.922710,2019-05-16
"서울특별시동작구청",서울특별시 동작구 신대방2나길 17(신대방1동 625-3),,생활방범,3,,,,,02-820-2906,37.489550,126.912830,2019-05-16
"서울특별시동작구청",서울특별시 동작구 여의대방로22아길 72(신대방2동 366-259),,생활방범,3,,,,,02-820-2906,37.495690,126.924630,2019-05-16
"서울특별시동작구청",서울특별시 동작구 현충로14길 26(흑석동 283-2) 이동식카메라,,생활방범,1,,,,,02-820-2906,37.505210,126.969320,2019-05-16
"서울특별시동작구청",서울특별시 동작구 만양로10길 6 (노량진1동 215-156) 해남고시원앞,,생활방범,3,,,,,02-820-2906,37.509010,126.946660,2019-05-16
"서울특별시동작구청",서울특별시 동작구 만양로14길 60 (노량진1동202-1)세종빌딩,,생활방범,3,,,,,02-820-2906,37.512500,126.947440,2019-05-16
"서울특별시동작구청",서울특별시 동작구 노량진로 28길 39 (노량진1동 47-41) 제일슈퍼 앞,,생활방범,3,,,,,02-820-2906,37.511300,126.955930,2019-05-16
"서울특별시동작구청",서울특별시 동작구 만양로 16길 9 (노량진1동 119-165),,생활방범,3,,,,,02-820-2906,37.511680,126.944580,2019-05-16
"서울특별시동작구청",서울특별시 동작구 장승배기로 143 장미빌라 (노량진1동 232-5 노량진성당맞은편),,생활방범,3,,,,,02-820-2906,37.510840,126.942440,2019-05-16
"서울특별시동작구청",서울특별시 동작구 만양로 12길 13 (노량진1동222-11),,생활방범,3,,,,,02-820-2906,37.510230,126.946320,2019-05-16
"서울특별시동작구청",서울특별시 동작구 매봉로 79 극락정사 사거리(한전주),,생활방범,1,,,,,02-820-2906,37.508080,126.951430,2019-05-16
"서울특별시동작구청",서울특별시 동작구 노량진로 26길47 (노량진1동51-2) 동양중학교 후문 골목,,생활방범,3,,,,,02-820-2906,37.510290,126.955280,2019-05-16
"서울특별시동작구청",서울특별시 동작구 노량진로 10가길 28 (노량진2동279-6),,생활방범,3,,,,,02-820-2906,37.511650,126.936040,2019-05-16
"서울특별시동작구청",서울특별시 동작구 장승배기로 19라길 34 (노량진2동294-459),,생활방범,3,,,,,02-820-2906,37.507000,126.936140,2019-05-16
"서울특별시동작구청",서울특별시 동작구 노량진로 12길44 (노량진2동 255-11 한전주),,생활방범,1,,,,,02-820-2906,37.511520,126.937660,2019-05-16
"서울특별시동작구청",서울특별시 동작구 노량진로 8나길 55 (노량진2동 291-16),,생활방범,3,,,,,02-820-2906,37.510090,126.937130,2019-05-16
"서울특별시동작구청",서울특별시 동작구 장승배기로 27길 80 (노량진2동 300-6),,생활방범,3,,,,,02-820-2906,37.509450,126.938570,2019-05-16
"서울특별시동작구청",서울특별시 동작구 등용로14길81 (노량진2동 266-14 정애정미용실앞),,생활방범,3,,,,,02-820-2906,37.512800,126.936000,2019-05-16
"서울특별시동작구청",서울특별시 동작구 노량진로 6길79 (노량진2동289-42),,생활방범,3,,,,,02-820-2906,37.509690,126.936750,2019-05-16
"서울특별시동작구청",서울특별시 동작구 상도로15길 111-7(상도동 360-4),,생활방범,3,,,,,02-820-2906,37.505060,126.936840,2019-05-16
"서울특별시동작구청",서울특별시 동작구 상도로31길 49(상도2동 22-153),,생활방범,3,,,,,02-820-2906,37.506750,126.945940,2019-05-16
"서울특별시동작구청",서울특별시 동작구 상도로 22길 25(상도2동 196-90) (한전주),,생활방범,1,,,,,02-820-2906,37.502140,126.937060,2019-05-16
"서울특별시동작구청",서울특별시 동작구 장승배기로 9나길1 (상도2동 200-1 교육청맞은편),,생활방범,3,,,,,02-820-2906,37.502530,126.939510,2019-05-16
"서울특별시동작구청",서울특별시 동작구 상도로 30길73 (상도2동 28-24 낙원경로당),,생활방범,3,,,,,02-820-2906,37.503810,126.944880,2019-05-16
"서울특별시동작구청",서울특별시 동작구 장승배기로10길 28(상도2동 178-3),,생활방범,3,,,,,02-820-2906,37.504770,126.940750,2019-05-16
"서울특별시동작구청",서울특별시 동작구 만양로 7 (상도2동 22-107 진양연립 길건너),,생활방범,3,,,,,02-820-2906,37.505540,126.946780,2019-05-16
"서울특별시동작구청",서울특별시 동작구 성대로 6마길 10 (상도3동 279-170 신동아빌라),,생활방범,3,,,,,02-820-2906,37.495340,126.935130,2019-05-16
"서울특별시동작구청",서울특별시 동작구 상도로 11길23 (상도3동 335-110)(한전주),,생활방범,1,,,,,02-820-2906,37.501940,126.929040,2019-05-16
"서울특별시동작구청",서울특별시 동작구 상도로13나길 33(상도3동 335-202),,생활방범,3,,,,,02-820-2906,37.502660,126.929260,2019-05-16
"서울특별시동작구청",서울특별시 동작구 상도로 13다길 1 (상도3동 335-98),,생활방범,3,,,,,02-820-2906,37.500770,126.930300,2019-05-16
"서울특별시동작구청",서울특별시 동작구 상도로15사길 30 (상도3동 356-67),,생활방범,3,,,,,02-820-2906,37.503010,126.932950,2019-05-16
"서울특별시동작구청",서울특별시 동작구 국사봉1길 178 (상도3동 283-48),,생활방범,3,,,,,02-820-2906,37.494810,126.934710,2019-05-16
"서울특별시동작구청",서울특별시 동작구 성대로 6가길 24 (상도3동256-69),,생활방범,3,,,,,02-820-2906,37.497830,126.932900,2019-05-16
"서울특별시동작구청",서울특별시 동작구 성대로 21길 54 (상도4동 244-131 상도초등학교 정문위),,생활방범,3,,,,,02-820-2906,37.500350,126.936410,2019-05-16
"서울특별시동작구청",서울특별시 동작구 양녕로 22다길 27 (상도4동 214-56),,생활방범,3,,,,,02-820-2906,37.496820,126.945870,2019-05-16
"서울특별시동작구청",서울특별시 동작구 성대로 14길 81 (상도4동 279-408),,생활방범,3,,,,,02-820-2906,37.494860,126.938690,2019-05-16
"서울특별시동작구청",서울특별시 동작구 성대로 165 (상도4동 235-34 충남정육점옆),,생활방범,3,,,,,02-820-2906,37.498690,126.939490,2019-05-16
"서울특별시동작구청",서울특별시 동작구 성대로1가길 24(상도4동 242-5),,생활방범,3,,,,,02-820-2906,37.501530,126.935740,2019-05-16
"서울특별시동작구청",서울특별시 동작구 성대로 10길 3 (상도4동 261-20 안일약국 주변),,생활방범,3,,,,,02-820-2906,37.497500,126.934630,2019-05-16
"서울특별시동작구청",서울특별시 동작구 성대로 16길 39 (상도4동 279-334 현대훼미리),,생활방범,3,,,,,02-820-2906,37.496810,126.937800,2019-05-16
"서울특별시동작구청",서울특별시 동작구 양녕로 25길 51 (상도4동 210-285),,생활방범,3,,,,,02-820-2906,37.497060,126.941470,2019-05-16
"서울특별시동작구청",서울특별시 동작구 등용로 10가길 7(대방동 44-104) (한전주),,생활방범,1,,,,,02-820-2906,37.509770,126.933190,2019-05-16
"서울특별시동작구청",서울특별시 동작구 등용로 10길 44 (대방동 44-250 영진교회 앞),,생활방범,3,,,,,02-820-2906,37.510420,126.934100,2019-05-16
"서울특별시동작구청",서울특별시 동작구 여의대방로 24다길 57 (대방동 410-10 코롱아파트 옆),,생활방범,3,,,,,02-820-2906,37.498790,126.924370,2019-05-16
"서울특별시동작구청",서울특별시 동작구 상도로 11길 9-1(대방동 335-29 동작 노인복지관 옆),,생활방범,3,,,,,02-820-2906,37.500650,126.929370,2019-05-16
"서울특별시동작구청",서울특별시 동작구 대방동 23길 45 (대방동 388-17),,생활방범,3,,,,,02-820-2906,37.504090,126.922660,2019-05-16
"서울특별시동작구청",서울특별시 동작구 대방동 23길 21(대방동 380-1),,생활방범,3,,,,,02-820-2906,37.503970,126.924170,2019-05-16
"서울특별시동작구청",서울특별시 동작구 여의대방로24나길 2(대방동 414-5),,생활방범,3,,,,,02-820-2906,37.498450,126.920950,2019-05-16
"서울특별시동작구청",서울특별시 동작구 여의대방로 22 우성아파트사이약수터길(한전주),,생활방범,1,,,,,02-820-2906,37.492080,126.913200,2019-05-16
"서울특별시동작구청",서울특별시 동작구 신대방14가길 23 (신대방1동 631-4 대천교회 앞)(한전주),,생활방범,1,,,,,02-820-2906,37.489970,126.912260,2019-05-16
"서울특별시동작구청",서울특별시 동작구 신대방1길 32 (신대방1동694-20앞 삼거리),,생활방범,3,,,,,02-820-2906,37.486520,126.909990,2019-05-16
"서울특별시동작구청",서울특별시 동작구 여의대방로 10길 73 (신대방1동 470-13),,생활방범,3,,,,,02-820-2906,37.493400,126.914900,2019-05-16
"서울특별시동작구청",서울특별시 동작구 대림로 43 동작쌍떼빌아파트 놀이터,,생활방범,3,,,,,02-820-2906,37.487630,126.908280,2019-05-16
"서울특별시동작구청",서울특별시 동작구 신대방3길 38 (신대방1동 689-57 댕기머리미용실),,생활방범,3,,,,,02-820-2906,37.487630,126.909690,2019-05-16
"서울특별시동작구청",서울특별시 동작구 신대방6길 25 (신대방1동 616-54 아이비영재어린이집 앞),,생활방범,3,,,,,02-820-2906,37.488900,126.911370,2019-05-16
"서울특별시동작구청",서울특별시 동작구 여의대방로16길 12-7 (신대방2동 498-44 주택가)(한전주),,생활방범,1,,,,,02-820-2906,37.496300,126.916210,2019-05-16
"서울특별시동작구청",서울특별시 동작구 여의대방로 22카길 12 (신대방2동 358-6 은혜교회 뒤),,생활방범,3,,,,,02-820-2906,37.497720,126.925850,2019-05-16
"서울특별시동작구청","서울특별시 동작구 서울특별시 동작구 보라매로9길 38-1 (신대방2동 366-57,58 한전주)",,생활방범,1,,,,,02-820-2906,37.495040,126.925120,2019-05-16
"서울특별시동작구청",서울특별시 동작구 서울특별시 동작구 보라매로7가길 6 (신대방2동 344-137 월드카센타) (전신주),,생활방범,1,,,,,02-820-2906,37.493850,126.926310,2019-05-16
"서울특별시동작구청",서울특별시 동작구 국사봉2가길 15 (신대방2동 339-4 대성빌라옆) (한전주),,생활방범,1,,,,,02-820-2906,37.497510,126.929070,2019-05-16
"서울특별시동작구청",서울특별시 동작구 보라매로17길 23 (신대방2동 360-146),,생활방범,3,,,,,02-820-2906,37.497320,126.926860,2019-05-16
"서울특별시동작구청",서울특별시 동작구 사당로2가길 10-3 (상도1동 410 현대아파트 201동),,생활방범,3,,,,,02-820-2906,37.493350,126.961110,2019-05-16
"서울특별시동작구청",서울특별시 동작구 상도로55길 16 (상도1동 484),,생활방범,3,,,,,02-820-2906,37.497880,126.955320,2019-05-16
"서울특별시동작구청",서울특별시 동작구 상도로47가길9 (상도1동 359-1 새마을금고 부근)(한전주),,생활방범,1,,,,,02-820-2906,37.500310,126.951380,2019-05-16
"서울특별시동작구청",서울특별시 동작구 상도로52길 4(상도동 469-5),,생활방범,3,,,,,02-820-2906,37.498090,126.951460,2019-05-16
"서울특별시동작구청",서울특별시 동작구 현충로12길 106(흑석동 295),,생활방범,3,,,,,02-820-2906,37.504000,126.968200,2019-05-16
"서울특별시동작구청",서울특별시 동작구 서달로4길 33(흑석동 79-132),,생활방범,3,,,,,02-820-2906,37.500490,126.961380,2019-05-16
"서울특별시동작구청",서울특별시 동작구 흑석로6길 29 (흑석동 207-74) (한전주),,생활방범,1,,,,,02-820-2906,37.505460,126.956080,2019-05-16
"서울특별시동작구청",서울특별시 동작구 서달로10나길 19 (흑석동 84-134 제일교회),,생활방범,1,,,,,02-820-2906,37.503400,126.962270,2019-05-16
"서울특별시동작구청",서울특별시 동작구 동작대로3길 46 (사당1동 1034-46),,생활방범,3,,,,,02-820-2906,37.478830,126.979020,2019-05-16
"서울특별시동작구청",서울특별시 동작구 동작대로15길 96 (사당1동 321-21),,생활방범,3,,,,,02-820-2906,37.482680,126.976210,2019-05-16
"서울특별시동작구청",서울특별시 동작구 남부순환로255나길 9(사당1동 449-18),,생활방범,3,,,,,02-820-2906,37.477060,126.971570,2019-05-16
"서울특별시동작구청",서울특별시 동작구 남부순환로271길 35 (사당1동 1032-50 완도수산)(한전주),,생활방범,1,,,,,02-820-2906,37.478330,126.980030,2019-05-16
"서울특별시동작구청",서울특별시 동작구 동작대로41길22 (사당2동102-69),,생활방범,3,,,,,02-820-2906,37.496510,126.980600,2019-05-16
"서울특별시동작구청",서울특별시 동작구 동작대로25길 16,,생활방범,3,,,,,02-820-2906,37.486290,126.981140,2019-05-16
"서울특별시동작구청",서울특별시 동작구 동작대로31길 32(사당동 91-41),,생활방범,5,,,,,02-820-2906,37.489090,126.980550,2019-05-16
"서울특별시동작구청",서울특별시 동작구 동작대로 33마길 39(사당2동 64-61)((한전주),,생활방범,1,,,,,02-820-2906,37.491020,126.977740,2019-05-16
"서울특별시동작구청",서울특별시 동작구 사당로29다길 54(사당동 141-251),,생활방범,1,,,,,02-820-2906,37.486840,126.977130,2019-05-16
"서울특별시동작구청",서울특별시 동작구 사당로23길 181 (사당3동 175-25 고은약국앞),,생활방범,3,,,,,02-820-2906,37.490160,126.970930,2019-05-16
"서울특별시동작구청",서울특별시 동작구 사당로27길 247 (사당3동 178-1 성락빌라 앞),,생활방범,3,,,,,02-820-2906,37.492620,126.969260,2019-05-16
"서울특별시동작구청",서울특별시 동작구 사당로13길 8 (사당3동 252-10),,생활방범,3,,,,,02-820-2906,37.484450,126.972760,2019-05-16
"서울특별시동작구청",서울특별시 동작구 사당로20나길 114 (사당4동 304-4)(한전주),,생활방범,1,,,,,02-820-2906,37.478820,126.971480,2019-05-16
"서울특별시동작구청",서울특별시 동작구 사당로16가길 12 (사당4동 265-57)(한전주),,생활방범,3,,,,,02-820-2906,37.482980,126.972730,2019-05-16
"서울특별시동작구청",서울특별시 동작구 사당로16바길 16 (사당4동 296-32),,생활방범,1,,,,,02-820-2906,37.481360,126.971610,2019-05-16
"서울특별시동작구청",서울특별시 동작구 사당로14가길 8(사당4동 254-11),,생활방범,1,,,,,02-820-2906,37.484010,126.971810,2019-05-16
"서울특별시동작구청",서울특별시 동작구 사당로8가길 9-8,,생활방범,3,,,,,02-820-2906,37.484070,126.967640,2019-05-16
"서울특별시동작구청",서울특별시 동작구 상도로49길 7 (상도1동 465-16),,생활방범,3,,,,,02-820-2906,37.499020,126.951950,2019-05-16
"서울특별시동작구청",서울특별시 동작구 사당로8길 9 (사당5동 248 사당문화회관 사거리),,생활방범,3,,,,,02-820-2906,37.484580,126.969350,2019-05-16
"서울특별시동작구청",서울특별시 동작구 노량진로14나길 24(노량진1동 119-35) 한빛독서실,,생활방범,3,,,,,02-820-2906,37.511770,126.943360,2019-05-16
"서울특별시동작구청",서울특별시 동작구 노량진로32길 10(노량진1동 10-23) 본동현장민원실 뒤편,,생활방범,3,,,,,02-820-2906,37.512940,126.956200,2019-05-16
"서울특별시동작구청",서울특별시 동작구 상도로34나길 9(상도2동 154-5),,생활방범,3,,,,,02-820-2906,37.504010,126.946010,2019-05-16
"서울특별시동작구청",서울특별시 동작구 서달로10길 98(흑석동 74),,생활방범,3,,,,,02-820-2906,37.502720,126.963380,2019-05-16
"서울특별시동작구청",서울특별시 동작구 남부순환로257가길 48(사당동 419-33),,생활방범,3,,,,,02-820-2906,37.480010,126.976490,2019-05-16
"서울특별시동작구청",서울특별시 동작구 동작대로31길 46-6(사당동 91-38),,생활방범,4,,,,,02-820-2906,37.489450,126.979930,2019-05-16
"서울특별시동작구청",서울특별시 동작구 동작대로길27길 5(사당2동 139-30 태평백화점 뒤),,생활방범,3,,,,,02-820-2906,37.487170,126.981630,2019-05-16
"서울특별시동작구청",서울특별시 동작구 사당로16나길 22(사당4동 267-21),,생활방범,3,,,,,02-820-2906,37.483020,126.972060,2019-05-16
"서울특별시동작구청",서울특별시 동작구 여의대방로 300,,생활방범,3,,,,,02-820-2906,37.513550,126.927090,2019-05-16
"서울특별시동작구청",서울특별시 동작구 여의대방로22나길 23(신대방2동 367-83 문창중학교 통학로),,생활방범,3,,,,,02-820-2906,37.496800,126.921270,2019-05-16
"서울특별시동작구청",서울특별시 동작구 흑석로3길 47,,생활방범,3,,,,,02-820-2906,37.509320,126.956990,2019-05-16
"서울특별시동작구청",서울특별시 동작구 흑석로3길 60(흑석동 186-20),,생활방범,3,,,,,02-820-2906,37.509560,126.958050,2019-05-16
"서울특별시동작구청",서울특별시 동작구 흑석로13길 27(흑석동 186-68),,생활방범,2,,,,,02-820-2906,37.509990,126.958870,2019-05-16
"서울특별시동작구청",서울특별시 동작구 흑석로5길 92(흑석동 186-61),,생활방범,2,,,,,02-820-2906,37.509080,126.958720,2019-05-16
"서울특별시동작구청",서울특별시 동작구 흑석로5길 73,,생활방범,2,,,,,02-820-2906,37.509060,126.957810,2019-05-16
"서울특별시동작구청",서울특별시 동작구 흑석로9길 72(흑석동 198-17),,생활방범,4,,,,,02-820-2906,37.508610,126.956740,2019-05-16
"서울특별시동작구청",서울특별시 동작구 흑석로13마길 12(흑석동 186-12),,생활방범,2,,,,,02-820-2906,37.509280,126.959520,2019-05-16
"서울특별시동작구청",서울특별시 동작구 보라매로13길 13(신대방2동 344-74),,생활방범,3,,,,,02-820-2906,37.496170,126.926770,2019-05-16
"서울특별시동작구청",서울특별시 동작구 장승배기로 20다길 10 정호아트빌라 삼거리(노량진1동 232-9),,생활방범,3,,,,,02-820-2906,37.509870,126.941310,2019-05-16
"서울특별시동작구청",서울특별시 동작구 장승배기로26길 65(노량진1동 119-118),,생활방범,3,,,,,02-820-2906,37.511060,126.943090,2019-05-16
"서울특별시동작구청",서울특별시 동작구 사당로16다길 57 제일아파트 앞 사거리(사당5동 240-15),,생활방범,3,,,,,02-820-2906,37.483320,126.969950,2019-05-16
"서울특별시동작구청",서울특별시 동작구 신대방2가길 12(신대방1동 618-147),,생활방범,3,,,,,02-820-2906,37.488440,126.912670,2019-05-16
"서울특별시동작구청",서울특별시 동작구 현충로22길 23(흑석동 227-20),,생활방범,3,,,,,02-820-2906,37.504370,126.970490,2019-05-16
"서울특별시동작구청",서울특별시 동작구 노량진로16길 10(노량진1동 100-3),,생활방범,3,,,,,02-820-2906,37.513030,126.943760,2019-05-16
"서울특별시동작구청",서울특별시 동작구 매봉로134 신동아APT앞(노량진1동 481),,생활방범,3,,,,,02-820-2906,37.510460,126.951120,2019-05-16
"서울특별시동작구청",서울특별시 동작구 만양로13길 28(노량진1동 221-84),,생활방범,3,,,,,02-820-2906,37.509340,126.944770,2019-05-16
"서울특별시동작구청",서울특별시 동작구 장승배기로16길 65(노량진2동 229-42),,생활방범,3,,,,,02-820-2906,37.507700,126.943030,2019-05-16
"서울특별시동작구청",서울특별시 동작구 노량진로8나길 111(노량진2동 294-414),,생활방범,4,,,,,02-820-2906,37.507790,126.936030,2019-05-16
"서울특별시동작구청",서울특별시 동작구 노량진로8다길 2(노량진2동 282-40),,생활방범,3,,,,,02-820-2906,37.510860,126.937070,2019-05-16
"서울특별시동작구청",서울특별시 동작구 장승배기로9길 41(상도2동 184-150),,생활방범,3,,,,,02-820-2906,37.503080,126.937740,2019-05-16
"서울특별시동작구청",서울특별시 동작구 상도로15길 104(상도2동 361-106),,생활방범,3,,,,,02-820-2906,37.504320,126.936020,2019-05-16
"서울특별시동작구청",서울특별시 동작구 상도로34길 36(상도2동 156-11),,생활방범,3,,,,,02-820-2906,37.503190,126.944860,2019-05-16
"서울특별시동작구청",서울특별시 동작구 국사봉10길 81-3(상도3동 301-70),,생활방범,3,,,,,02-820-2906,37.493220,126.932940,2019-05-16
"서울특별시동작구청",서울특별시 동작구 상도로15다길 7-12(상도3동 331-67),,생활방범,3,,,,,02-820-2906,37.502320,126.932910,2019-05-16
"서울특별시동작구청",서울특별시 동작구 성대로2길 11 상도3동주민센터(상도3동 315-37),,생활방범,3,,,,,02-820-2906,37.499190,126.931220,2019-05-16
"서울특별시동작구청",서울특별시 동작구 상도로22나길 17(상도4동 193-63),,생활방범,3,,,,,02-820-2906,37.501750,126.936450,2019-05-16
"서울특별시동작구청",서울특별시 동작구 성대로25길 10-8 구립샛별어린이집(상도4동 236-24),,생활방범,3,,,,,02-820-2906,37.499180,126.938970,2019-05-16
"서울특별시동작구청",서울특별시 동작구 성대로10나길 6 성대경로당 인근(상도4동 269-13),,생활방범,3,,,,,02-820-2906,37.497120,126.934930,2019-05-16
"서울특별시동작구청",서울특별시 동작구 대방동길 77 앞 삼거리(대방동 376-1),,생활방범,3,,,,,02-820-2906,37.505020,126.924780,2019-05-16
"서울특별시동작구청",서울특별시 동작구 등용로8가길 11 골목길(대방동 13-50),,생활방범,3,,,,,02-820-2906,37.506330,126.934140,2019-05-16
"서울특별시동작구청",서울특별시 동작구 여의대방로24사길 8 앞(대방동 404-15),,생활방범,3,,,,,02-820-2906,37.499060,126.925250,2019-05-16
"서울특별시동작구청",서울특별시 동작구 서울특별시 동작구 신대방길 88 새마을금고앞(신대방1동 602-15),,생활방범,3,,,,,02-820-2906,37.489620,126.909450,2019-05-16
"서울특별시동작구청",서울특별시 동작구 신대방16가길 18 향나무빌라앞(신대방1동 599-24),,생활방범,3,,,,,02-820-2906,37.490320,126.910810,2019-05-16
"서울특별시동작구청",서울특별시 동작구 신대방18길 1 장시회관 앞(신대방1동 591-57),,생활방범,3,,,,,02-820-2906,37.490060,126.908810,2019-05-16
"서울특별시동작구청",서울특별시 동작구 신대방14가길 23 대천교회 앞(신대방1동 631-4),,생활방범,3,,,,,02-820-2906,37.490070,126.912860,2019-05-16
"서울특별시동작구청",서울특별시 동작구 여의대방로22길 44 보라매어린이집(신대방2동 364-18),,생활방범,3,,,,,02-820-2906,37.497690,126.922300,2019-05-16
"서울특별시동작구청",서울특별시 동작구 보라매로9라길 10(신대방2동 344-165),,생활방범,3,,,,,02-820-2906,37.494670,126.925680,2019-05-16
"서울특별시동작구청",서울특별시 동작구 여의대방로22길 78(신대방2동 361-55),,생활방범,3,,,,,02-820-2906,37.497730,126.923780,2019-05-16
"서울특별시동작구청",서울특별시 동작구 상도로47바길41(상도동 54-34) 앞 삼거리 상도펠리스,,생활방범,3,,,,,02-820-2906,37.503740,126.953610,2019-05-16
"서울특별시동작구청",서울특별시 동작구 상도로68길 10(상도동 498-3,,생활방범,3,,,,,02-820-2906,37.493660,126.955350,2019-05-16
"서울특별시동작구청",서울특별시 동작구 상도로45길 81(상도1동 326-2),,생활방범,3,,,,,02-820-2906,37.502630,126.952970,2019-05-16
"서울특별시동작구청",서울특별시 동작구 상도로61길 44(상도동 504-2),,생활방범,4,,,,,02-820-2906,37.494670,126.957620,2019-05-16
"서울특별시동작구청",서울특별시 동작구 만양로2길 46(상도동 16-18) 오른쪽 전주,,생활방범,3,,,,,02-820-2906,37.506580,126.949680,2019-05-16
"서울특별시동작구청",서울특별시 동작구 상도로13가길 6-2(상도동 328-1),,생활방범,3,,,,,02-820-2906,37.500500,126.931220,2019-05-16
"서울특별시동작구청",서울특별시 동작구 성대로19길 23(상도동 244-369) 장안골든빌라앞삼거리,,생활방범,3,,,,,02-820-2906,37.499070,126.936420,2019-05-16
"서울특별시동작구청",서울특별시 동작구 흑석로6길 16-1(흑석동 207-18) 사거리 전신주옆,,생활방범,4,,,,,02-820-2906,37.505740,126.956670,2019-05-16
"서울특별시동작구청",서울특별시 동작구 서달로13길 11-1 연흥여인숙 골목,,생활방범,3,,,,,02-820-2906,37.508200,126.962200,2019-05-16
"서울특별시동작구청",서울특별시 동작구 서달로10라길 17(흑석동 64-43),,생활방범,4,,,,,02-820-2906,37.503350,126.964190,2019-05-16
"서울특별시동작구청",서울특별시 동작구 서달로4가길 19-2(흑석동 79-230),,생활방범,3,,,,,02-820-2906,37.500930,126.961750,2019-05-16
"서울특별시동작구청",서울특별시 동작구 남부순환로271길 65(사당동 1033-14) 오거리,,생활방범,5,,,,,02-820-2906,37.479500,126.979410,2019-05-16
"서울특별시동작구청",서울특별시 동작구 동작대로11길104(사당동 319-44)오거리,,생활방범,5,,,,,02-820-2906,37.481500,126.975680,2019-05-16
"서울특별시동작구청",서울특별시 동작구 남부순환로269길 87(사당동 435-20),,생활방범,4,,,,,02-820-2906,37.479150,126.974900,2019-05-16
"서울특별시동작구청",서울특별시 동작구 남부순환로271가길 7(사당동 1039-45),,생활방범,3,,,,,02-820-2906,37.477790,126.979550,2019-05-16
"서울특별시동작구청",서울특별시 동작구 남부순환로267길 13(사당동 419-114),,생활방범,4,,,,,02-820-2906,37.477570,126.976140,2019-05-16
"서울특별시동작구청",서울특별시 동작구 동작대로41길 7(동작동 102-60)하랑숲유치원,,생활방범,3,,,,,02-820-2906,37.495840,126.981920,2019-05-16
"서울특별시동작구청",서울특별시 동작구 동작대로35가길 3(사당동 72-15),,생활방범,3,,,,,02-820-2906,37.490560,126.981050,2019-05-16
"서울특별시동작구청",서울특별시 동작구 동작대로27라길 12(사당동 141-5),,생활방범,3,,,,,02-820-2906,37.486060,126.979500,2019-05-16
"서울특별시동작구청",서울특별시 동작구 사당로27길 225(사당동178-48),,생활방범,3,,,,,02-820-2906,37.491780,126.970540,2019-05-16
"서울특별시동작구청",서울특별시 동작구 사당로9가길 58 경남아그네스빌(사당동 209-16),,생활방범,3,,,,,02-820-2906,37.487380,126.968230,2019-05-16
"서울특별시동작구청",서울특별시 동작구 사당로23길 278(사당동 180-1) 남묘주차장앞,,생활방범,3,,,,,02-820-2906,37.492850,126.967500,2019-05-16
"서울특별시동작구청",서울특별시 동작구 사당로18길 9(사당동318-19)앞삼거리전신주옆,,생활방범,3,,,,,02-820-2906,37.482710,126.974580,2019-05-16
"서울특별시동작구청",서울특별시 동작구 남부순환로257길 42 남성중학교,,생활방범,3,,,,,02-820-2906,37.478160,126.972460,2019-05-16
"서울특별시동작구청",서울특별시 동작구 사당로16아길 59,,생활방범,4,,,,,02-820-2906,37.481000,126.968570,2019-05-16
"서울특별시동작구청",서울특별시 동작구 사당로2길 40 장은해그린아파트,,생활방범,3,,,,,02-820-2906,37.491460,126.963370,2019-05-16
"서울특별시동작구청",서울특별시 동작구 사당로10길 93(사당동 239-7),,생활방범,3,,,,,02-820-2906,37.482140,126.967530,2019-05-16
"서울특별시동작구청",서울특별시 동작구 사당로2차길 15-9(사당동 202-2),,생활방범,4,,,,,02-820-2906,37.487780,126.965900,2019-05-16
"서울특별시동작구청",서울특별시 동작구 여의대방로22가길 25-1(신대방2동 365-1),,생활방범,3,,,,,02-820-2906,37.496830,126.920800,2019-05-16
"서울특별시동작구청",서울특별시 동작구 여의대방로22바길 36(신대방2동 360-81),,생활방범,3,,,,,02-820-2906,37.496280,126.923560,2019-05-16
"서울특별시동작구청",서울특별시 동작구 만양로14아길 7(노량진1동 204-1),,생활방범,4,,,,,02-820-2906,37.511960,126.947490,2019-05-16
"서울특별시동작구청",서울특별시 동작구 장승배기로21길18(노량진2동 305-16),,생활방범,4,,,,,02-820-2906,37.509020,126.939130,2019-05-16
"서울특별시동작구청",서울특별시 동작구 상도로22길 9(상도2동 184-171),,생활방범,4,,,,,02-820-2906,37.502950,126.936500,2019-05-16
"서울특별시동작구청",서울특별시 동작구 국사봉10길 72-4(상도3동 301-55),,생활방범,4,,,,,02-820-2906,37.493410,126.932410,2019-05-16
"서울특별시동작구청",서울특별시 동작구 성대로11가길 16(상도4동 264-241),,생활방범,4,,,,,02-820-2906,37.497830,126.936120,2019-05-16
"서울특별시동작구청",서울특별시 동작구 흑석로9길 41(흑석동 199-6),,생활방범,4,,,,,02-820-2906,37.508010,126.958010,2019-05-16
"서울특별시동작구청",서울특별시 동작구 현충로10길 56(흑석동 292),,생활방범,4,,,,,02-820-2906,37.504520,126.967400,2019-05-16
"서울특별시동작구청",서울특별시 동작구 동작대로21길 16(사당1동 1006-12),,생활방범,5,,,,,02-820-2906,37.483810,126.980930,2019-05-16
"서울특별시동작구청",서울특별시 동작구 동작대로9다길 23(사당1동 1025-14),,생활방범,5,,,,,02-820-2906,37.479560,126.977300,2019-05-16
"서울특별시동작구청",서울특별시 동작구 남부순환로269길 27(사당1동 1046-25),,생활방범,4,,,,,02-820-2906,37.477800,126.977610,2019-05-16
"서울특별시동작구청",서울특별시 동작구 동작대로29다길 7-5(사당2동 91-158),,생활방범,4,,,,,02-820-2906,37.488630,126.980220,2019-05-16
"서울특별시동작구청",서울특별시 동작구 동작대로33바길 41(사당2동 59-4),,생활방범,4,,,,,02-820-2906,37.491920,126.977130,2019-05-16
"서울특별시동작구청",서울특별시 동작구 사당로29가길 31-1(사당3동 141-66),,생활방범,4,,,,,02-820-2906,37.486480,126.979200,2019-05-16
"서울특별시동작구청",서울특별시 동작구 사당로16길 30(사당동 274-24),,생활방범,4,,,,,02-820-2906,37.482240,126.972890,2019-05-16
"서울특별시동작구청",서울특별시 동작구 사당로10가길 22(사당5동 241-42),,생활방범,3,,,,,02-820-2906,37.482600,126.967850,2019-05-16
"서울특별시동작구청",서울특별시 동작구 보라매로15길 16(신대방2동 360-137),,생활방범,3,,,,,02-820-2906,37.497170,126.926810,2019-05-16
"서울특별시동작구청",서울특별시 동작구 성대로6가길 71(상도3동 290-55),,생활방범,3,,,,,02-820-2906,37.496220,126.934160,2019-05-16
"서울특별시동작구청",서울특별시 동작구 성대로16길 16(상도4동 264-151),,생활방범,4,,,,,02-820-2906,37.497500,126.936870,2019-05-16
"서울특별시동작구청",서울특별시 동작구 노량진로14길 8(노량진동 58-1),,생활방범,4,,,,,02-820-2906,37.513060,126.942070,2019-05-16
"서울특별시동작구청",서울특별시 동작구 노량진로8나길 15(노량진동 258-4),,생활방범,3,,,,,02-820-2906,37.511820,126.937040,2019-05-16
"서울특별시동작구청",서울특별시 동작구 상도로47사길 4(상도동 53-8),,생활방범,4,,,,,02-820-2906,37.503290,126.953390,2019-05-16
"서울특별시동작구청",서울특별시 동작구 상도로 162(상도동 185-1),,생활방범,4,,,,,02-820-2906,37.503680,126.937250,2019-05-16
"서울특별시동작구청",서울특별시 동작구 상도로12길 5(상도동 324-23),,생활방범,4,,,,,02-820-2906,37.499400,126.929950,2019-05-16
"서울특별시동작구청",서울특별시 동작구 서달로14나길 24-5(흑석동 54-161),,생활방범,4,,,,,02-820-2906,37.507260,126.962840,2019-05-16
"서울특별시동작구청",서울특별시 동작구 남부순환로269길 48(사당동 419-121),,생활방범,5,,,,,02-820-2906,37.478250,126.976630,2019-05-16
"서울특별시동작구청",서울특별시 동작구 동작대로27가길 45(사당동 147-75),,생활방범,4,,,,,02-820-2906,37.485530,126.981090,2019-05-16
"서울특별시동작구청",서울특별시 동작구 사당로17나길 8(사당동 257-22),,생활방범,4,,,,,02-820-2906,37.484190,126.973150,2019-05-16
"서울특별시동작구청",서울특별시 동작구 사당로16가길 56(사당동 249-38),,생활방범,5,,,,,02-820-2906,37.483840,126.970510,2019-05-16
"서울특별시동작구청",서울특별시 동작구 사당로16다길 92(사당동 231-12),,생활방범,4,,,,,02-820-2906,37.484350,126.968530,2019-05-16
"서울특별시동작구청",서울특별시 동작구 대방동길 15-1(대방동 391-549),,생활방범,4,,,,,02-820-2906,37.501010,126.927510,2019-05-16
"서울특별시동작구청",서울특별시 동작구 성대로5길 12(상도동 251-8),,생활방범,4,,,,,02-820-2906,37.499670,126.933760,2019-05-16
"서울특별시동작구청",서울특별시 동작구 신대방길 32(신대방동 617-9),,생활방범,4,,,,,02-820-2906,37.488070,126.910770,2019-05-16
"서울특별시동작구청",서울특별시 동작구 장승배기로94(노량진동 310-150),,생활방범,4,,,,,02-820-2906,37.506080,126.940410,2019-05-16
"서울특별시동작구청",서울특별시 동작구 장승배기로27길27(노량진동 242-11),,생활방범,4,,,,,02-820-2906,37.511220,126.939270,2019-05-16
"서울특별시동작구청",서울특별시 동작구 상도로37길 7(상도1동 668),,생활방범,4,,,,,02-820-2906,37.502660,126.948750,2019-05-16
"서울특별시동작구청",서울특별시 동작구 상도로13라길22(상도동 335-5),,생활방범,3,,,,,02-820-2906,37.502850,126.930210,2019-05-16
"서울특별시동작구청",서울특별시 동작구 상도로15길54(상도동 357-15),,생활방범,4,,,,,02-820-2906,37.502820,126.934550,2019-05-16
"서울특별시동작구청",서울특별시 동작구 성대로12길57(상도동 279-47),,생활방범,5,,,,,02-820-2906,37.495390,126.937460,2019-05-16
"서울특별시동작구청",서울특별시 동작구 서달로13길5-30(흑석동 102-30),,생활방범,3,,,,,02-820-2906,37.507690,126.961690,2019-05-16
"서울특별시동작구청",서울특별시 동작구 장승배기로17길 31(노량진동 315-13),,생활방범,4,,,,,02-820-2906,37.506480,126.938160,2019-05-16
"서울특별시동작구청",서울특별시 동작구 남부순환로255길 7(사당동 1052-1),,생활방범,4,,,,,02-820-2906,37.476260,126.971120,2019-05-16
"서울특별시동작구청",서울특별시 동작구 동작대로33가길 5(사당동 83-2),,생활방범,5,,,,,02-820-2906,37.489480,126.981730,2019-05-16
"서울특별시동작구청",서울특별시 동작구 여의대방로26길54(대방동 411-29),,생활방범,4,,,,,02-820-2906,37.499220,126.923750,2019-05-16
"서울특별시동작구청",서울특별시 동작구 신대방길62(신대방동 604-15),,생활방범,4,,,,,02-820-2906,37.488650,126.909670,2019-05-16
"서울특별시동작구청",서울특별시 동작구 성대로 1길 26,,생활방범,4,,,,,02-820-2906,37.501580,126.934460,2019-05-16
"서울특별시동작구청",서울특별시 동작구 성대로 21다길 34,,생활방범,3,,,,,02-820-2906,37.500710,126.934920,2019-05-16
"서울특별시동작구청",서울특별시 동작구 성대로 17길 52(도화공원 인근),,생활방범,4,,,,,02-820-2906,37.500160,126.935160,2019-05-16
"서울특별시동작구청",서울특별시 동작구 성대로 11길 22,,생활방범,4,,,,,02-820-2906,37.498460,126.934860,2019-05-16
"서울특별시동작구청",서울특별시 동작구 성대로 37길 27,,생활방범,4,,,,,02-820-2906,37.500380,126.939760,2019-05-16
"서울특별시동작구청",서울특별시 동작구 양녕로 25길 52-18,,생활방범,4,,,,,02-820-2906,37.496870,126.940730,2019-05-16
"서울특별시동작구청",서울특별시 동작구 양녕로 25가길 23,,생활방범,4,,,,,02-820-2906,37.498890,126.942300,2019-05-16
"서울특별시동작구청",서울특별시 동작구 양녕로 26길 68,,생활방범,5,,,,,02-820-2906,37.495550,126.943390,2019-05-16
"서울특별시동작구청",서울특별시 동작구 성대로 29길 10,,생활방범,3,,,,,02-820-2906,37.499460,126.939860,2019-05-16
"서울특별시동작구청",서울특별시 동작구 양녕로 22바길 37,,생활방범,4,,,,,02-820-2906,37.496590,126.947040,2019-05-16
"서울특별시동작구청",서울특별시 동작구 여의대방로44길 39,,생활방범,1,,,,,02-820-2906,37.509760,126.928200,2019-05-16
"서울특별시동작구청",서울특별시 동작구 여의대방로44길 39,,생활방범,2,,,,,02-820-2906,37.509770,126.928610,2019-05-16
"서울특별시동작구청",서울특별시 동작구 여의대방로44길 39,,생활방범,2,,,,,02-820-2906,37.510860,126.929410,2019-05-16
"서울특별시동작구청",서울특별시 동작구 여의대방로44길 39,,생활방범,1,,,,,02-820-2906,37.503610,126.930790,2019-05-16
"서울특별시동작구청",서울특별시 동작구 노량진로 191,,생활방범,1,,,,,02-820-2906,37.513480,126.949170,2019-05-16
"서울특별시동작구청",서울특별시 동작구 노량진로 191,,생활방범,1,,,,,02-820-2906,37.513730,126.949660,2019-05-16
"서울특별시동작구청",서울특별시 동작구 노량진로 191,,생활방범,1,,,,,02-820-2906,37.513380,126.949920,2019-05-16
"서울특별시동작구청",서울특별시 동작구 현충로 55,,생활방범,2,,,,,02-820-2906,37.510140,126.963000,2019-05-16
"서울특별시동작구청",서울특별시 동작구 현충로 55,,생활방범,2,,,,,02-820-2906,37.510610,126.962620,2019-05-16
"서울특별시동작구청",서울특별시 동작구 현충로 55,,생활방범,1,,,,,02-820-2906,37.510430,126.963010,2019-05-16
"서울특별시동작구청",서울특별시 동작구 현충로 55,,생활방범,1,,,,,02-820-2906,37.510570,126.963370,2019-05-16
"서울특별시동작구청",서울특별시 동작구 현충로 213,,생활방범,1,,,,,02-820-2906,37.502830,126.978480,2019-05-16
"서울특별시동작구청",서울특별시 동작구 현충로 213,,생활방범,1,,,,,02-820-2906,37.503510,126.978590,2019-05-16
"서울특별시동작구청",서울특별시 동작구 현충로 213,,생활방범,2,,,,,02-820-2906,37.503690,126.978400,2019-05-16
"서울특별시동작구청",서울특별시 동작구 여의대방로24길 29,,생활방범,2,,,,,02-820-2906,37.498180,126.921950,2019-05-16
"서울특별시동작구청",서울특별시 동작구 여의대방로24길 29,,생활방범,2,,,,,02-820-2906,37.497950,126.921830,2019-05-16
"서울특별시동작구청",서울특별시 동작구 사당로16사길 48,,생활방범,1,,,,,02-820-2906,37.480190,126.969930,2019-05-16
"서울특별시동작구청",서울특별시 동작구 양녕로28길 9,,생활방범,1,,,,,02-820-2906,37.498840,126.944980,2019-05-16
"서울특별시동작구청",서울특별시 동작구 노량진로26길 16-17,,생활방범,1,,,,,02-820-2906,37.510690,126.954260,2019-05-16
"서울특별시동작구청",서울특별시 동작구 노량진로26길 16-17,,생활방범,1,,,,,02-820-2906,37.510470,126.954550,2019-05-16
"서울특별시동작구청",서울특별시 동작구 상도로13길 11,,생활방범,2,,,,,02-820-2906,37.500640,126.930220,2019-05-16
"서울특별시동작구청",서울특별시 동작구 여의대방로10길 38,,생활방범,2,,,,,02-820-2906,37.494450,126.912490,2019-05-16
"서울특별시동작구청",서울특별시 동작구 성대로16길 67-6,,생활방범,1,,,,,02-820-2906,37.496130,126.939240,2019-05-16
"서울특별시동작구청",서울특별시 동작구 동작대로41길 23-21,,생활방범,1,,,,,02-820-2906,37.496590,126.978770,2019-05-16
"서울특별시동작구청",서울특별시 동작구 동작대로41길 23-21,,생활방범,1,,,,,02-820-2906,37.496550,126.978250,2019-05-16
"서울특별시동작구청",서울특별시 동작구 상도로68길 29(상도1동 126-18) 푸른솔아파트,,생활방범,4,,,,,02-820-2906,37.492120,126.955630,2019-05-16
"서울특별시동작구청",서울특별시 동작구 매봉로 51,,생활방범,1,,,,,02-820-2906,37.506940,126.951720,2019-05-16
"서울특별시동작구청",서울특별시 동작구 상도로30길 40,,생활방범,1,,,,,02-820-2906,37.503160,126.942870,2019-05-16
"서울특별시동작구청",서울특별시 동작구 사당로20나길 26,,생활방범,2,,,,,02-820-2906,37.481830,126.973920,2019-05-16
"서울특별시동작구청",서울특별시 동작구 상도로66길 36,,생활방범,1,,,,,02-820-2906,37.493730,126.952990,2019-05-16
"서울특별시동작구청",서울특별시 동작구 장승배기로19라길 51(상도2동 362-46) 노량진근린공원(백로공원),,생활방범,1,,,,,02-820-2906,37.506880,126.935260,2019-05-16
"서울특별시동작구청",서울특별시 동작구 장승배기로19라길 51(상도2동 362-46) 노량진근린공원(백로공원),,생활방범,2,,,,,02-820-2906,37.506930,126.935620,2019-05-16
"서울특별시동작구청",서울특별시 동작구 상도로15사길 8,,생활방범,1,,,,,02-820-2906,37.503900,126.932520,2019-05-16
"서울특별시동작구청",서울특별시 동작구 만양로13가길 34-1,,생활방범,1,,,,,02-820-2906,37.508750,126.943190,2019-05-16
"서울특별시동작구청",서울특별시 동작구 만양로13가길 34-1,,생활방범,1,,,,,02-820-2906,37.508710,126.943840,2019-05-16
"서울특별시동작구청",서울특별시 동작구 만양로13가길 34-1,,생활방범,2,,,,,02-820-2906,37.508660,126.944100,2019-05-16
"서울특별시동작구청",서울특별시 동작구 매봉로6길 16,,생활방범,1,,,,,02-820-2906,37.507590,126.954250,2019-05-16
"서울특별시동작구청",서울특별시 동작구 노량진로26길 65,,생활방범,1,,,,,02-820-2906,37.509520,126.955400,2019-05-16
"서울특별시동작구청",서울특별시 동작구 국사봉길 175,,생활방범,2,,,,,02-820-2906,37.493160,126.935220,2019-05-16
"서울특별시동작구청",서울특별시 동작구 사당로2가길 219,,생활방범,1,,,,,02-820-2906,37.485480,126.967200,2019-05-16
"서울특별시동작구청",서울특별시 동작구 상도로47라길 22,,생활방범,2,,,,,02-820-2906,37.501600,126.951050,2019-05-16
"서울특별시동작구청",서울특별시 동작구 사당로8나길 14,,생활방범,1,,,,,02-820-2906,37.483480,126.967870,2019-05-16
"서울특별시동작구청",서울특별시 동작구 여의대방로44길 10,,생활방범,1,,,,,02-820-2906,37.506580,126.925770,2019-05-16
"서울특별시동작구청",서울특별시 동작구 현충로12길 101,,생활방범,1,,,,,02-820-2906,37.503950,126.967970,2019-05-16
"서울특별시동작구청",서울특별시 동작구 동작대로9길 35,,생활방범,1,,,,,02-820-2906,37.480570,126.980010,2019-05-16
"서울특별시동작구청",서울특별시 동작구 동작대로9길 35,,생활방범,1,,,,,02-820-2906,37.480380,126.980000,2019-05-16
"서울특별시동작구청",서울특별시 동작구 사당로23길 57-7,,생활방범,1,,,,,02-820-2906,37.485540,126.974930,2019-05-16
"서울특별시동작구청",서울특별시 동작구 사당로23길 57-7,,생활방범,1,,,,,02-820-2906,37.486740,126.973200,2019-05-16
"서울특별시동작구청",서울특별시 동작구 상도소공원(상도2동 529-1),,생활방범,1,,,,,02-820-2906,37.504790,126.943820,2019-05-16
"서울특별시동작구청",서울특별시 동작구 상도로38길 69-12,,생활방범,1,,,,,02-820-2906,37.500070,126.949560,2019-05-16
"서울특별시동작구청",서울특별시 동작구 상도로38길 69-12,,생활방범,1,,,,,02-820-2906,37.500050,126.949430,2019-05-16
"서울특별시동작구청",서울특별시 동작구 상도로38길 69-12,,생활방범,1,,,,,02-820-2906,37.500000,126.949280,2019-05-16
"서울특별시동작구청",서울특별시 동작구 상도로38길 69-12,,생활방범,1,,,,,02-820-2906,37.499970,126.949200,2019-05-16
"서울특별시동작구청",서울특별시 동작구 상도로38길 69-12,,생활방범,1,,,,,02-820-2906,37.499940,126.949110,2019-05-16
"서울특별시동작구청",서울특별시 동작구 상도로38길 69-12,,생활방범,1,,,,,02-820-2906,37.499900,126.949010,2019-05-16
"서울특별시동작구청",서울특별시 동작구 성대로6가길 41-2,,생활방범,1,,,,,02-820-2906,37.496980,126.933960,2019-05-16
"서울특별시동작구청",서울특별시 동작구 사당로9나길 21,,생활방범,1,,,,,02-820-2906,37.486850,126.969740,2019-05-16
"서울특별시동작구청",서울특별시 동작구 사당로9나길 21,,생활방범,1,,,,,02-820-2906,37.486270,126.970200,2019-05-16
"서울특별시동작구청",서울특별시 동작구 여의대방로10길 38,,생활방범,1,,,,,02-820-2906,37.494120,126.913050,2019-05-16
"서울특별시동작구청",서울특별시 동작구 양녕로23길 27,,생활방범,1,,,,,02-820-2906,37.495440,126.940760,2019-05-16
"서울특별시동작구청",서울특별시 동작구 양녕로23길 27,,생활방범,1,,,,,02-820-2906,37.492490,126.943080,2019-05-16
"서울특별시동작구청",서울특별시 동작구 사당로2가길 188,,생활방범,1,,,,,02-820-2906,37.485930,126.964390,2019-05-16
"서울특별시동작구청",서울특별시 동작구 서달로14마길 18,,생활방범,1,,,,,02-820-2906,37.506650,126.964080,2019-05-16
"서울특별시동작구청",서울특별시 동작구 사당로16마길 70,,생활방범,1,,,,,02-820-2906,37.482200,126.969550,2019-05-16
"서울특별시동작구청",서울특별시 동작구 사당로16길 96,,생활방범,1,,,,,02-820-2906,37.478150,126.970140,2019-05-16
"서울특별시동작구청",서울특별시 동작구 사당로20다길 25,,생활방범,1,,,,,02-820-2906,37.480050,126.973160,2019-05-16
"서울특별시동작구청",서울특별시 동작구 사당로20바길 19,,생활방범,1,,,,,02-820-2906,37.480000,126.974020,2019-05-16
"서울특별시동작구청",서울특별시 동작구 동작대로1길 15,,생활방범,3,,,,,02-820-2906,37.476950,126.980630,2019-05-16
"서울특별시동작구청",서울특별시 동작구 사당로23나길 27,,생활방범,2,,,,,02-820-2906,37.488400,126.974280,2019-05-16
"서울특별시동작구청",서울특별시 동작구 동작대로39가길 31,,생활방범,3,,,,,02-820-2906,37.493870,126.980200,2019-05-16
"서울특별시동작구청",서울특별시 동작구 국사봉1길 108,,생활방범,2,,,,,02-820-2906,37.496650,126.932070,2019-05-16
"서울특별시동작구청",서울특별시 동작구 상도로 213,,생활방범,1,,,,,02-820-2906,37.505470,126.941990,2019-05-16
"서울특별시동작구청",서울특별시 동작구 상도로 213,,생활방범,1,,,,,02-820-2906,37.505370,126.942000,2019-05-16
"서울특별시동작구청",서울특별시 동작구 사당로2가길 202,,생활방범,2,,,,,02-820-2906,37.486200,126.965730,2019-05-16
"서울특별시동작구청",서울특별시 동작구 상도로47가길 38,,생활방범,2,,,,,02-820-2906,37.503300,126.954380,2019-05-16
"서울특별시동작구청",서울특별시 동작구 사당로2가길 167,,생활방범,2,,,,,02-820-2906,37.487420,126.965380,2019-05-16
"서울특별시동작구청",서울특별시 동작구 국사봉2라길 24-14,,생활방범,2,,,,,02-820-2906,37.495180,126.929630,2019-05-16
"서울특별시동작구청",서울특별시 동작구 장승배기로13길 46,,생활방범,1,,,,,02-820-2906,37.506490,126.937570,2019-05-16
"서울특별시동작구청",서울특별시 동작구 노량진로26길 16-40 (노량진1동 50-8) 본동초,,어린이보호,1,,,,,02-820-2906,37.510110,126.953250,2019-05-16
"서울특별시동작구청",서울특별시 동작구 사당로23나길 27(사당3동 105-23) 삼일초,,어린이보호,1,,,,,02-820-2906,37.487800,126.975280,2019-05-16
"서울특별시동작구청",서울특별시 동작구 만양로12가길 69(노량진1동 441-11) 영본초,,어린이보호,1,,,,,02-820-2906,37.511180,126.948450,2019-05-16
"서울특별시동작구청",서울특별시 동작구 현충로 87(흑석동 7-1) 흑석초,,어린이보호,1,,,,,02-820-2906,37.508710,126.964040,2019-05-16
"서울특별시동작구청",서울특별시 동작구 알마타길 16(대방동 351-6) 신길초,,어린이보호,1,,,,,02-820-2906,37.509850,126.926520,2019-05-16
"서울특별시동작구청",서울특별시 동작구 서달로 135(흑석동 233-2) 중대부속초,,어린이보호,1,,,,,02-820-2906,37.505820,126.961110,2019-05-16
"서울특별시동작구청",서울특별시 동작구 동작대로29길 214(사당2동 산 9-1) 동작초,,어린이보호,1,,,,,02-820-2906,37.493040,126.975790,2019-05-16
"서울특별시동작구청",서울특별시 동작구 등용로8길 3(대방동 44-3) 영화초,,어린이보호,1,,,,,02-820-2906,37.508470,126.932710,2019-05-16
"서울특별시동작구청",서울특별시 동작구 사당로 146(사당5동 199-1) 신남성초 후문,,어린이보호,1,,,,,02-820-2906,37.488600,126.964660,2019-05-16
"서울특별시동작구청",서울특별시 동작구 성대로17길 52(상도4동 244-183) 상도초(도화공원내),,어린이보호,4,,,,,02-820-2906,37.499500,126.935180,2019-05-16
"서울특별시동작구청",서울특별시 동작구 강남초등길 15(상도1동 501-1) 강남초,,어린이보호,1,,,,,02-820-2906,37.505970,126.952200,2019-05-16
"서울특별시동작구청",서울특별시 동작구 장승배기로10길 130,,어린이보호,5,,,,,02-820-2906,37.500710,126.945100,2019-05-16
"서울특별시동작구청",서울특별시 동작구 성대로29길 79(상도4동 238) 상도초등학교 앞 교차로,,어린이보호,4,,,,,02-820-2906,37.501160,126.936920,2019-05-16
"서울특별시동작구청",서울특별시 동작구 상도로 59,,어린이보호,4,,,,,02-820-2906,37.500200,126.926680,2019-05-16
"서울특별시동작구청",서울특별시 동작구 여의대방로16길 30(신대방2동 488-1) 보라매초등학교 정문 앞,,어린이보호,4,,,,,02-820-2906,37.495370,126.916490,2019-05-16
"서울특별시동작구청",서울특별시 동작구 동작대로13길 22(사당1동 1011-1) 남사초등학교 정문 앞 교차로,,어린이보호,4,,,,,02-820-2906,37.481800,126.979530,2019-05-16
"서울특별시동작구청",서울특별시 동작구 사당로23길 60,,어린이보호,3,,,,,02-820-2906,37.485880,126.975300,2019-05-16
"서울특별시동작구청",서울특별시 동작구 솔밭로 47(사당5동 산 32-87)행림초등학교 정문옆 동작고등학교 정문 앞 신호등 지점,,어린이보호,3,,,,,02-820-2906,37.481110,126.965850,2019-05-16
"서울특별시동작구청",서울특별시 동작구 장승배기로 146(노량진1동 236-13)노량진초등하교 후문 앞,,어린이보호,4,,,,,02-820-2906,37.510490,126.940390,2019-05-16
"서울특별시동작구청",서울특별시 동작구 흑석로 12(상도1동 489-2)앞 교차로 강남초,,어린이보호,4,,,,,02-820-2906,37.504800,126.952010,2019-05-16
"서울특별시동작구청",서울특별시 동작구 장승배기로26길 17,,어린이보호,4,,,,,02-820-2906,37.511870,126.941450,2019-05-16
"서울특별시동작구청",서울특별시 동작구 신대방2길 12,,어린이보호,3,,,,,02-820-2906,37.488000,126.913160,2019-05-16
"서울특별시동작구청",서울특별시 동작구 장승배기로 164,,어린이보호,2,,,,,02-820-2906,37.511100,126.954090,2019-05-16
"서울특별시동작구청",서울특별시 동작구 사당로23길 112,,어린이보호,4,,,,,02-820-2906,37.487450,126.975050,2019-05-16
"서울특별시동작구청",서울특별시 동작구 성대로21길 59,,어린이보호,2,,,,,02-820-2906,37.500510,126.936670,2019-05-16
"서울특별시동작구청",서울특별시 동작구 여의대방로46길 28,,어린이보호,4,,,,,02-820-2906,37.510840,126.925880,2019-05-16
"서울특별시동작구청",서울특별시 동작구 사당로2가길 133,,어린이보호,3,,,,,02-820-2906,37.488500,126.963740,2019-05-16
"서울특별시동작구청",서울특별시 동작구 만양로12가길 60,,어린이보호,3,,,,,02-820-2906,37.509600,126.948830,2019-05-16
"서울특별시동작구청",서울특별시 동작구 서달로 167(흑석동 102-1) 앞 교차로 흑석초,,어린이보호,3,,,,,02-820-2906,37.508030,126.962890,2019-05-16
"서울특별시동작구청",서울특별시 동작구 양녕로 28길 25(상도4동 212-129) 서울삼성학교,,어린이보호,4,,,,,02-820-2906,37.498420,126.945070,2019-05-16
"서울특별시동작구청",서울특별시 동작구 장승배기로20길 20(노량진2동 225-36),,어린이보호,4,,,,,02-820-2906,37.508960,126.941130,2019-05-16
"서울특별시동작구청",서울특별시 동작구 성대로6길 10 앞 교차로 벧엘유치원,,어린이보호,3,,,,,02-820-2906,37.498940,126.932650,2019-05-16
"서울특별시동작구청",서울특별시 동작구 보라매로 19길 16-1(신대방2동 349-25) 앞 애광유치원 아니고 정현유치원,,어린이보호,3,,,,,02-820-2906,37.497820,126.927110,2019-05-16
"서울특별시동작구청",서울특별시 동작구 사당로23길 112 정현유치원 아니고 구립사당어린이집,,어린이보호,3,,,,,02-820-2906,37.489840,126.972170,2019-05-16
"서울특별시동작구청",서울특별시 동작구 성대로6가길 152 앞 사랑유치원,,어린이보호,3,,,,,02-820-2906,37.493740,126.936210,2019-05-16
"서울특별시동작구청",서울특별시 동작구 여의대방로36길 13 앞 양지어린이집,,어린이보호,4,,,,,02-820-2906,37.504730,126.923260,2019-05-16
"서울특별시동작구청",서울특별시 동작구 서달로2길 29 연꽃어린이집,,어린이보호,4,,,,,02-820-2906,37.501650,126.963630,2019-05-16
"서울특별시동작구청",서울특별시 동작구 양녕로36길 17(상도1동 159-221),,어린이보호,3,,,,,02-820-2906,37.502260,126.946540,2019-05-16
"서울특별시동작구청",서울특별시 동작구 상도로58길 16 서울어린이집,,어린이보호,3,,,,,02-820-2906,37.495210,126.952320,2019-05-16
"서울특별시동작구청",서울특별시 동작구 여의대방로24가길 22 상도어린이집,,어린이보호,4,,,,,02-820-2906,37.499270,126.920970,2019-05-16
"서울특별시동작구청",서울특별시 동작구 여의대방로10길 59 보라매파크빌 후문앞 보도 보라매초,,어린이보호,4,,,,,02-820-2906,37.495370,126.916490,2019-05-16
"서울특별시동작구청",서울특별시 동작구 등용로 86 영화초,,어린이보호,4,,,,,02-820-2906,37.508870,126.932290,2019-05-16
"서울특별시동작구청",서울특별시 동작구 만양로 26 (건영아파트상가 현대부동산앞 보도) 영본초,,어린이보호,5,,,,,02-820-2906,37.507110,126.948160,2019-05-16
"서울특별시동작구청",서울특별시 동작구 장승배기로 13 신상도초,,어린이보호,4,,,,,02-820-2906,37.499720,126.942930,2019-05-16
"서울특별시동작구청",서울특별시 동작구 흑석로 27 건너편 강남초,,어린이보호,4,,,,,02-820-2906,37.505050,126.953810,2019-05-16
"서울특별시동작구청",서울특별시 동작구 사당로23길 112 건너편 남성초,,어린이보호,4,,,,,02-820-2906,37.487020,126.974000,2019-05-16
"서울특별시동작구청",서울특별시 동작구 동작대로39가길 83 동작초등학교 곡각 동작초,,어린이보호,4,,,,,02-820-2906,37.494640,126.978290,2019-05-16
"서울특별시동작구청",서울특별시 동작구 서달로 83 (우리유앤미아파트102동  관리사무소 담장) 은로초,,어린이보호,4,,,,,02-820-2906,37.501120,126.960220,2019-05-16
"서울특별시동작구청",서울특별시 동작구 서달로 153 중대부속초,,어린이보호,4,,,,,02-820-2906,37.507380,126.961660,2019-05-16
"서울특별시동작구청",서울특별시 동작구 사당로10길 102 맞은편 도로변 보도 행림초,,어린이보호,4,,,,,02-820-2906,37.482010,126.966710,2019-05-16
"서울특별시동작구청",서울특별시 동작구 사당로16마길 73 행림초,,어린이보호,3,,,,,02-820-2906,37.482680,126.968360,2019-05-16
"서울특별시동작구청",서울특별시 동작구 흑석로 115-3 장수불고기앞 보도 흑석초,,어린이보호,5,,,,,02-820-2906,37.508830,126.961610,2019-05-16
"서울특별시동작구청",서울특별시 동작구 상도로58길 4 상현초,,어린이보호,5,,,,,02-820-2906,37.495770,126.953010,2019-05-16
"서울특별시동작구청",서울특별시 동작구 만양로13가길 34-1 동아유치원,,어린이보호,3,,,,,02-820-2906,37.508400,126.943790,2019-05-16
"서울특별시동작구청",서울특별시 동작구 장승배기로16길 115(노량진2동 225-158),,어린이보호,4,,,,,02-820-2906,37.509810,126.942820,2019-05-16
"서울특별시동작구청",서울특별시 동작구 양녕로26길 11 상아유치원,,어린이보호,4,,,,,02-820-2906,37.497510,126.944100,2019-05-16
"서울특별시동작구청",서울특별시 동작구 성대로21길 16 승혜유치원,,어린이보호,4,,,,,02-820-2906,37.498760,126.937190,2019-05-16
"서울특별시동작구청",서울특별시 동작구 신대방11길 32 양문유치원,,어린이보호,5,,,,,02-820-2906,37.488590,126.907770,2019-05-16
"서울특별시동작구청",서울특별시 동작구 여의대방로44길 49 (대방주공 2단지아파트 207동 앞 보도) 열림유치원,,어린이보호,3,,,,,02-820-2906,37.509310,126.928250,2019-05-16
"서울특별시동작구청",서울특별시 동작구 여의대방로 56-9(보라매롯데낙천대아파트 107동 관리사무소 맞은편) 요요유치원,,어린이보호,3,,,,,02-820-2906,37.495510,126.912820,2019-05-16
"서울특별시동작구청",서울특별시 동작구 장승배기로5길 18 성모유치원,,어린이보호,3,,,,,02-820-2906,37.501200,126.939970,2019-05-16
"서울특별시동작구청",서울특별시 동작구 양녕로25길 71 행복유치원,,어린이보호,4,,,,,02-820-2906,37.496120,126.940750,2019-05-16
"서울특별시동작구청",서울특별시 동작구 흑석로 47 중대부속유치원,,어린이보호,3,,,,,02-820-2906,37.506300,126.955140,2019-05-16
"서울특별시동작구청",서울특별시 동작구 상도로41가길 15 강남유치원,,어린이보호,5,,,,,02-820-2906,37.504060,126.950260,2019-05-16
"서울특별시동작구청",서울특별시 동작구 국사봉1길 235-1 연꽃어린이집,,어린이보호,3,,,,,02-820-2906,37.493210,126.935790,2019-05-16
"서울특별시동작구청",서울특별시 동작구 여의대방로24길 113 은하어린이집,,어린이보호,4,,,,,02-820-2906,37.499210,126.926570,2019-05-16
"서울특별시동작구청",서울특별시 동작구 매봉로2길 1 예담어린이집,,어린이보호,4,,,,,02-820-2906,37.507210,126.951880,2019-05-16
"서울특별시동작구청",서울특별시 동작구 동작대로17길 37 참사랑어린이집,,어린이보호,4,,,,,02-820-2906,37.482900,126.977600,2019-05-16
"서울특별시동작구청",서울특별시 동작구 사당로4길 46(흑석동 252-45) 맞은편 흑석어린이집,,어린이보호,4,,,,,02-820-2906,37.499870,126.961930,2019-05-16
"서울특별시동작구청",서울특별시 동작구 사당로13길 31두산위브트레지움 102동 앞 문화어린이집,,어린이보호,4,,,,,02-820-2906,37.485070,126.972340,2019-05-16
"서울특별시동작구청",서울특별시 동작구 상도로50길 36-1(샛별유치원),,어린이보호,2,,,,,02-820-2906,37.497870,126.950280,2019-05-16
"서울특별시동작구청",서울특별시 동작구 서달로12길 89-19(큰별어린이집),,어린이보호,3,,,,,02-820-2906,37.504340,126.965250,2019-05-16
"서울특별시동작구청",서울특별시 동작구 사당로8나길 1(사당5동 233-11) 우리어린이집,,어린이보호,3,,,,,02-820-2906,37.483950,126.968400,2019-05-16
"서울특별시동작구청",서울특별시 동작구 양녕로20길 112,,어린이보호,3,,,,,02-820-2906,37.497110,126.945100,2019-05-16
"서울특별시동작구청",서울특별시 동작구 성대로10길 27,,어린이보호,3,,,,,02-820-2906,37.496660,126.935260,2019-05-16
"서울특별시동작구청",서울특별시 동작구 동작대로35아길 32,,어린이보호,4,,,,,02-820-2906,37.493530,126.978090,2019-05-16
"서울특별시동작구청",서울특별시 동작구 상도로 47길 108 (상도1동 486),,어린이보호,3,,,,,02-820-2906,37.504020,126.951770,2019-05-16
"서울특별시동작구청",서울특별시 동작구 장승배기로 160(노량진1동 51) 노량진초 정문,,어린이보호,3,,,,,02-820-2906,37.511860,126.940260,2019-05-16
"서울특별시동작구청",서울특별시 동작구 여의대방로 256(대방동 500) 성원아파트 102동 앞,,어린이보호,3,,,,,02-820-2906,37.508740,126.925280,2019-05-16
"서울특별시동작구청",서울특별시 동작구 알마타길 29(대방동 349-3),,어린이보호,3,,,,,02-820-2906,37.511180,126.928360,2019-05-16
"서울특별시동작구청",서울특별시 동작구 장승배기로 4(상도2동 207-5),,어린이보호,4,,,,,02-820-2906,37.499130,126.943870,2019-05-16
"서울특별시동작구청",서울특별시 동작구 서달로 112(흑석동 86-188),,어린이보호,3,,,,,02-820-2906,37.503630,126.960920,2019-05-16
"서울특별시동작구청",서울특별시 동작구 사당로 138(사당5동 200-8),,어린이보호,3,,,,,02-820-2906,37.488390,126.966120,2019-05-16
"서울특별시동작구청",서울특별시 동작구 상도로50길 33(상도1동 470-8) ※주정차-27번 지주대공용,,어린이보호,3,,,,,02-820-2906,37.497240,126.950310,2019-05-16
"서울특별시동작구청",서울특별시 동작구 성대로12길 1(상도4동 263-8),,어린이보호,4,,,,,02-820-2906,37.497600,126.935230,2019-05-16
"서울특별시동작구청",서울특별시 동작구 서달로2길 2(흑석동 257-62),,어린이보호,3,,,,,02-820-2906,37.499710,126.960760,2019-05-16
"서울특별시동작구청",서울특별시 동작구 흑석한강로 11(흑석동 335-2)  ※주정차-22번 지주대공용,,어린이보호,3,,,,,02-820-2906,37.505570,126.966240,2019-05-16
"서울특별시동작구청",서울특별시 동작구 동작대로17길 20(사당1동 1004-45),,어린이보호,4,,,,,02-820-2906,37.482760,126.979520,2019-05-16
"서울특별시동작구청",서울특별시 동작구 여의대방로36길 79(대방동 15-46),,어린이보호,3,,,,,02-820-2906,37.507810,126.930240,2019-05-16
"서울특별시동작구청",서울특별시 동작구 강남초등길 7(강남초교병설유치원),,어린이보호,4,,,,,02-820-2906,37.506470,126.952120,2019-05-16
"서울특별시동작구청",서울특별시 동작구 사당로17길 49(남성초교병설유치원),,어린이보호,4,,,,,02-820-2906,37.485400,126.973150,2019-05-16
"서울특별시동작구청",서울특별시 동작구 신대방2길 42(문창초교병설유치원),,어린이보호,5,,,,,02-820-2906,37.488810,126.912430,2019-05-16
"서울특별시동작구청",서울특별시 동작구 성대로 21길 2(상도동 244-291) 상도초등학교,,어린이보호,5,,,,,02-820-2906,37.498140,126.937320,2019-05-16
"서울특별시동작구청",서울특별시 동작구 동작대로41길 2(동작동 102-35) 하랑숲유치원,,어린이보호,3,,,,,02-820-2906,37.495510,126.982480,2019-05-16
"서울특별시동작구청",서울특별시 동작구 여의대방로 46길 성원아파트 앞,,어린이보호,4,,,,,02-820-2906,37.510920,126.926590,2019-05-16
"서울특별시동작구청",서울특별시 동작구 대방동길 3 대림초등학교,,어린이보호,3,,,,,02-820-2906,37.500190,126.927710,2019-05-16
"서울특별시동작구청",서울특별시 동작구 양녕로170 노벨어린이집,,어린이보호,4,,,,,02-820-2906,37.497210,126.943950,2019-05-16
"서울특별시동작구청",서울특별시 동작구 상도로56길 15 흐리목소공원 앞 상현초등학교,,어린이보호,3,,,,,02-820-2906,37.495470,126.951940,2019-05-16
"서울특별시동작구청",서울특별시 동작구 양녕로 30길 24 삼성특수학교,,어린이보호,4,,,,,02-820-2906,37.499310,126.945520,2019-05-16
"서울특별시동작구청",서울특별시 동작구 만양로 19 신동아리버파크 앞,,어린이보호,4,,,,,02-820-2906,37.505910,126.941200,2019-05-16
"서울특별시동작구청",서울특별시 동작구 만양로 8길 50,,어린이보호,3,,,,,02-820-2906,37.508130,126.948240,2019-05-16
"서울특별시동작구청",서울특별시 동작구 등용로 66 앞 영화초등학교,,어린이보호,4,,,,,02-820-2906,37.506970,126.932300,2019-05-16
"서울특별시동작구청",서울특별시 동작구 매봉로 134 LIG건영아파트 105동 앞 영본초등학교,,어린이보호,4,,,,,02-820-2906,37.509190,126.950760,2019-05-16
"서울특별시동작구청",서울특별시 동작구 양녕로29길 39(상도4동 203-19),,기타,2,,,,,02-820-2906,37.499830,126.942030,2019-05-16
"서울특별시동작구청",서울특별시 동작구 양녕로29길 22(상도4동 203-29),,기타,1,,,,,02-820-2906,37.499500,126.942820,2019-05-16
"서울특별시동작구청",서울특별시 동작구 양녕로26가길 4(상도4동 211-15),,기타,1,,,,,02-820-2906,37.497900,126.944310,2019-05-16
"서울특별시동작구청",서울특별시 동작구 양녕로26가길 4-7(상도4동 211-13),,기타,1,,,,,02-820-2906,37.497700,126.945030,2019-05-16
"서울특별시동작구청",서울특별시 동작구 양녕로22가길 60(상도4동 214-322),,기타,1,,,,,02-820-2906,37.497700,126.945030,2019-05-16
"서울특별시동작구청",서울특별시 동작구 양녕로20길 82(상도4동 214-87),,기타,1,,,,,02-820-2906,37.495880,126.944590,2019-05-16
"서울특별시동작구청",서울특별시 동작구 양녕로22길 21 (상도4동 214-71),,기타,1,,,,,02-820-2906,37.494190,126.944040,2019-05-16
"서울특별시동작구청",서울특별시 동작구 양녕로22다길 1 (상도4동 214-185),,기타,1,,,,,02-820-2906,37.495610,126.945290,2019-05-16
"서울특별시동작구청",서울특별시 동작구 양녕로22길 77 (상도4동 214-402),,기타,1,,,,,02-820-2906,37.495080,126.945770,2019-05-16
"서울특별시동작구청",서울특별시 동작구 양녕로26나길 41(상도4동 214-363),,기타,1,,,,,02-820-2906,37.496690,126.946310,2019-05-16
"서울특별시동작구청",서울특별시 동작구 양녕로26나길 49(상도4동 214-412),,기타,1,,,,,02-820-2906,37.496380,126.946500,2019-05-16
"서울특별시동작구청",서울특별시 동작구 양녕로 22바길 26(상도4동 214-299),,기타,1,,,,,02-820-2906,37.496010,126.946750,2019-05-16
"서울특별시동작구청",서울특별시 동작구 신대방1나길 46 (신대방1동 686-23),,기타,1,,,,,02-820-2906,37.486060,126.906770,2019-05-16
"서울특별시동작구청",서울특별시 동작구 신대방1나길 54(신대방1동 686-50),,기타,1,,,,,02-820-2906,37.485980,126.906240,2019-05-16
"서울특별시동작구청",서울특별시 동작구 신대방13길 33(신대방1동 689-16),,기타,1,,,,,02-820-2906,37.488220,126.908900,2019-05-16
"서울특별시동작구청",서울특별시 동작구 국사봉길 71(상도3동 298-13),,기타,1,,,,,02-820-2906,37.496620,126.930790,2019-05-16
"서울특별시동작구청",서울특별시 동작구 국사봉8길 21(상도3동 299-83),,기타,1,,,,,02-820-2906,37.495790,126.930360,2019-05-16
"서울특별시동작구청",서울특별시 동작구 국사봉10길 32-1(상도3동 299-126),,기타,1,,,,,02-820-2906,37.494680,126.931330,2019-05-16
"서울특별시동작구청",서울특별시 동작구 국사봉길 87(상도3동 294-15),,기타,1,,,,,02-820-2906,37.496050,126.931270,2019-05-16
"서울특별시동작구청",서울특별시 동작구 국사봉길 98(상도3동 299-14),,기타,1,,,,,02-820-2906,37.495720,126.931590,2019-05-16
"서울특별시동작구청",서울특별시 동작구 국사봉12길 11(상도3동 299-16),,기타,1,,,,,02-820-2906,37.495460,126.931900,2019-05-16
"서울특별시동작구청",서울특별시 동작구 국사봉1가길 15(상도3동 288-12),,기타,1,,,,,02-820-2906,37.495070,126.933220,2019-05-16
"서울특별시동작구청",서울특별시 동작구 동작대로19길 39(사당1동 1004-40),,기타,1,,,,,02-820-2906,37.483450,126.979550,2019-05-16
"서울특별시동작구청",서울특별시 동작구 동작대로13길 18(사당1동 1010-1),,기타,1,,,,,02-820-2906,37.482250,126.979570,2019-05-16
"서울특별시동작구청",서울특별시 동작구 동작대로11길 42(사당1동 1017-28),,기타,1,,,,,02-820-2906,37.481250,126.979420,2019-05-16
"서울특별시동작구청",서울특별시 동작구 사당로26길 71(사당1동 1026-1),,기타,1,,,,,02-820-2906,37.480650,126.978110,2019-05-16
"서울특별시동작구청",서울특별시 동작구 사당로26길 48(사당1동 1016-46),,기타,1,,,,,02-820-2906,37.481790,126.978080,2019-05-16
"서울특별시동작구청",서울특별시 동작구 동작대로17길 33(사당1동 1012-40),,기타,1,,,,,02-820-2906,37.482810,126.978240,2019-05-16
"서울특별시동작구청",서울특별시 동작구 동작대로15길 84 (사당1동 1012-5),,기타,1,,,,,02-820-2906,37.482430,126.976860,2019-05-16
"서울특별시동작구청",서울특별시 동작구 사당로22길 60 (사당1동 426-17),,기타,1,,,,,02-820-2906,37.480750,126.977000,2019-05-16
"서울특별시동작구청",서울특별시 동작구 동작대로11길 27(사당1동 1020-20),,기타,1,,,,,02-820-2906,37.481240,126.980040,2019-05-16
"서울특별시동작구청",서울특별시 동작구 국사봉7길 13(상도3동 303-18),,기타,1,,,,,02-820-2906,37.497290,126.931190,2019-05-16
"서울특별시동작구청",서울특별시 동작구 국사봉1길 122(상도3동 294-46),,기타,1,,,,,02-820-2906,37.496270,126.932180,2019-05-16
"서울특별시동작구청",서울특별시 동작구 국사봉8길 12(상도3동 299-59),,기타,1,,,,,02-820-2906,37.496120,126.930350,2019-05-16
"서울특별시동작구청",서울특별시 동작구 사당로23길 56(사당3동 708-610),,기타,1,,,,,02-820-2906,37.485900,126.975480,2019-05-16
"서울특별시동작구청",서울특별시 동작구 사당로16길 36-19 (사당4동 277-1),,기타,1,,,,,02-820-2906,37.482200,126.971880,2019-05-16
"서울특별시동작구청",서울특별시 동작구 사당로16길 44 (사당4동 275-39),,기타,1,,,,,02-820-2906,37.481850,126.972530,2019-05-16
"서울특별시동작구청",서울특별시 동작구 사당로16길 51-8(사당동 314-16),,기타,1,,,,,02-820-2906,37.481250,126.972620,2019-05-16
"서울특별시동작구청",서울특별시 동작구 사당로 20 나길58-14(사당4동 311-17),,기타,1,,,,,02-820-2906,37.481100,126.972530,2019-05-16
"서울특별시동작구청",서울특별시 동작구 사당로 20 나길 52-1(사당4동 314-9),,기타,1,,,,,02-820-2906,37.481140,126.973250,2019-05-16
"서울특별시동작구청",서울특별시 동작구 동작대로19길 53 (사당1동 1004-13),,기타,1,,,,,02-820-2906,37.483480,126.978590,2019-05-16
"서울특별시동작구청",서울특별시 동작구 동작대로15길 26(사당1동 1009-23),,기타,1,,,,,02-820-2906,37.482300,126.980090,2019-05-16
"서울특별시동작구청",서울특별시 동작구 사당로30길 96(사당1동 1029-37),,기타,1,,,,,02-820-2906,37.480550,126.980750,2019-05-16
"서울특별시동작구청",서울특별시 동작구 동작대로13길 7(사당1동 1019-1),,기타,1,,,,,02-820-2906,37.481690,126.980890,2019-05-16
"서울특별시동작구청",서울특별시 동작구 동작대로17길 5(사당1동 1008-1),,기타,1,,,,,02-820-2906,37.482730,126.980950,2019-05-16
"서울특별시동작구청",서울특별시 동작구 동작대로27다길 26(사당2동 138-3),,기타,1,,,,,02-820-2906,37.486050,126.980080,2019-05-16
"서울특별시동작구청",서울특별시 동작구 사당로16길 131(사당4동 303-89),,기타,1,,,,,02-820-2906,37.478160,126.970440,2019-05-16
"서울특별시동작구청",서울특별시 동작구 신대방14가길 60(신대방1동 632-9),,기타,1,,,,,02-820-2906,37.489580,126.913820,2019-05-16
"서울특별시동작구청",서울특별시 동작구 신대방1가길 14(신대방1동 694-24),,기타,1,,,,,02-820-2906,37.486810,126.909150,2019-05-16
"서울특별시동작구청",서울특별시 동작구 흑석로 105(흑석동 183-5 ) 중대병원,,교통단속,1,,,,,02-820-2906,37.507730,126.961090,2019-05-16
"서울특별시동작구청",서울특별시 동작구 만양로 100(노량진1동 118-5 ) 서울특별시 동작구 만양로 정진학원 앞,,교통단속,1,,,,,02-820-2906,37.512460,126.944310,2019-05-16
"서울특별시동작구청",서울특별시 동작구 만양로 79(노량진1동 224-1) 서울특별시 동작구 만양로 강남교회 앞,,교통단속,1,,,,,02-820-2906,37.510520,126.944600,2019-05-16
"서울특별시동작구청",서울특별시 동작구 동작대로27길 18(사당2동 132-6) 사당2동 우성아파트 진입로,,교통단속,1,,,,,02-820-2906,37.487580,126.981090,2019-05-16
"서울특별시동작구청",서울특별시 동작구 성대로 11(상도4동 248-17) 성대시장 사거리,,교통단속,1,,,,,02-820-2906,37.500000,126.932400,2019-05-16
"서울특별시동작구청",서울특별시 동작구 보라매로5가길 7(신대방2동 395-73) 보라매캐릭터그린빌,,교통단속,1,,,,,02-820-2906,37.491630,126.924700,2019-05-16
"서울특별시동작구청",서울특별시 동작구 상도로 16(대방동 401-21) 서울공고 정류장,,교통단속,1,,,,,02-820-2906,37.499790,126.922450,2019-05-16
"서울특별시동작구청",서울특별시 동작구 노들로 734(노량진1동 2-3) 노량진수산시장,,교통단속,1,,,,,02-820-2906,37.515580,126.940550,2019-05-16
"서울특별시동작구청",서울특별시 동작구 사당로 243(사당3동 708-413) 남성지구대 사거리,,교통단속,1,,,,,02-820-2906,37.483280,126.974560,2019-05-16
"서울특별시동작구청",서울특별시 동작구 서달로 166(흑석동 97-1),,교통단속,1,,,,,02-820-2906,37.507990,126.963000,2019-05-16
"서울특별시동작구청",서울특별시 동작구 여의대방로 250(대방동 501),,교통단속,1,,,,,02-820-2906,37.509070,126.924100,2019-05-16
"서울특별시동작구청",서울특별시 동작구 만양로43(노량진1동 217-41),,교통단속,1,,,,,02-820-2906,37.508080,126.947320,2019-05-16
"서울특별시동작구청",서울특별시 동작구 서달로 144(흑석동 86-117) 중대부초,,교통단속,1,,,,,02-820-2906,37.506180,126.961210,2019-05-16
"서울특별시동작구청",서울특별시 동작구 여의대방로10길 24(신대방1동 492-200) 대방중학교,,교통단속,1,,,,,02-820-2906,37.494830,126.914640,2019-05-16
"서울특별시동작구청",서울특별시 동작구 보라매로5길 20(신대방2동 425) 보라매병원,,교통단속,1,,,,,02-820-2906,37.493080,126.923250,2019-05-16
"서울특별시동작구청",서울특별시 동작구 사당로 283(사당3동 150-10) 이수역 10번 출구,,교통단속,1,,,,,02-820-2906,37.484310,126.978880,2019-05-16
"서울특별시동작구청",서울특별시 동작구 보라매로 113(대방동 405-11) 신대방삼거리역,,교통단속,1,,,,,02-820-2906,37.499650,126.928120,2019-05-16
"서울특별시동작구청",서울특별시 동작구 사당로 214 (사당4동 712-10) 남성역 1번 출구,,교통단속,1,,,,,02-820-2906,37.484270,126.971950,2019-05-16
"서울특별시동작구청",서울특별시 동작구 동작대로 29길 69(사당2동 120-4) 두성상가 앞,,교통단속,1,,,,,02-820-2906,37.488700,126.978390,2019-05-16
"서울특별시동작구청",서울특별시 동작구 상도로 348(상도1동 475) 현대엠코 진입로,,교통단속,1,,,,,02-820-2906,37.497430,126.952500,2019-05-16
"서울특별시동작구청",서울특별시 동작구 신대방1가길 51(신대방1동 695) 성원쌍떼빌 뒤길,,교통단속,1,,,,,02-820-2906,37.486640,126.907540,2019-05-16
"서울특별시동작구청",서울특별시 동작구 흑석한강로13(흑석동 39-10) 흑석동주민센터 (어린이-88번 같이),,교통단속,1,,,,,02-820-2906,37.505570,126.966240,2019-05-16
"서울특별시동작구청",서울특별시 동작구 남부순환로271길 14(사당1동 1041-11) 사당노인종합복지관 주변(방범-113 같이),,교통단속,1,,,,,02-820-2906,37.477320,126.980040,2019-05-16
"서울특별시동작구청",서울특별시 동작구 여의대방로62길 14(대방동 101-5)  방범-35 같이,,교통단속,1,,,,,02-820-2906,37.513900,126.927940,2019-05-16
"서울특별시동작구청",서울특별시 동작구 상도로 31길 19 (상도2동 527),,교통단속,1,,,,,02-820-2906,37.505250,126.944260,2019-05-16
"서울특별시동작구청",서울특별시 동작구 장승배기로 4길 9 (상도2동 521),,교통단속,1,,,,,02-820-2906,37.501250,126.941240,2019-05-16
"서울특별시동작구청",서울특별시 동작구 상도로 50길 33 (상도1동 470-8) (어린이-85번 같이),,교통단속,1,,,,,02-820-2906,37.497240,126.950310,2019-05-16
"서울특별시동작구청",서울특별시 동작구 사당로 300 (사당1동 147-29),,교통단속,1,,,,,02-820-2906,37.484230,126.980950,2019-05-16
"서울특별시동작구청",서울특별시 동작구 여의대방로 54길 12 (대방동 344-10),,교통단속,1,,,,,02-820-2906,37.511940,126.926340,2019-05-16
"서울특별시동작구청",서울특별시 동작구 노들로 674 노량진수산시장(노량진2동 13-6),,교통단속,1,,,,,02-820-2906,37.514710,126.935910,2019-05-16
"서울특별시동작구청",서울특별시 동작구 노들로 674 노량진수산시장(노량진2동 13-6),,교통단속,1,,,,,02-820-2906,37.515500,126.939490,2019-05-16
"서울특별시동작구청",서울특별시 동작구 상도로15길 120(상도2동 365-7호),,교통단속,1,,,,,02-820-2906,37.504630,126.937410,2019-05-16
"서울특별시동작구청",서울특별시 동작구 사당로16길 35(사당4동 316-4) 농협앞,,교통단속,1,,,,,02-820-2906,37.481850,126.972530,2019-05-16
"서울특별시동작구청",서울특별시 동작구 여의대방로22길 77(신대방2동 361-2),,교통단속,1,,,,,02-820-2906,37.497800,126.924040,2019-05-16
"서울특별시동작구청",서울특별시 동작구 사당로23길 112 이수역로이파크 아파트 정문,,교통단속,1,,,,,02-820-2906,37.488020,126.972800,2019-05-16
"서울특별시동작구청",서울특별시 동작구 사당로23길 112 이수역로이파크 아파트 후문,,교통단속,1,,,,,02-820-2906,37.488870,126.973660,2019-05-16
"서울특별시동작구청",서울특별시 동작구 노량진로14길 33(노량진1동 83-10),,쓰레기단속,1,,,,,02-820-2906,37.512020,126.942700,2019-05-16
"서울특별시동작구청",서울특별시 동작구 노량진로6길 63(노량진2동 289-90),,쓰레기단속,1,,,,,02-820-2906,37.510350,126.936230,2019-05-16
"서울특별시동작구청",서울특별시 동작구 상도로47길 54(상도1동 333-13),,쓰레기단속,1,,,,,02-820-2906,37.501700,126.952040,2019-05-16
"서울특별시동작구청",서울특별시 동작구 상도로15길112(상도동 359-5),,쓰레기단속,1,,,,,02-820-2906,37.504550,126.936970,2019-05-16
"서울특별시동작구청",서울특별시 동작구 성대로6나길 21(상도3동 307-12),,쓰레기단속,1,,,,,02-820-2906,37.497930,126.931620,2019-05-16
"서울특별시동작구청",서울특별시 동작구 양녕로25길 12(상도4동 210-254),,쓰레기단속,1,,,,,02-820-2906,37.498270,126.943110,2019-05-16
"서울특별시동작구청",서울특별시 동작구 서달로12나길 2-5(흑석동 55-3),,쓰레기단속,1,,,,,02-820-2906,37.506620,126.963130,2019-05-16
"서울특별시동작구청",서울특별시 동작구 동작대로 19(사당1동 1042-1),,쓰레기단속,1,,,,,02-820-2906,37.478310,126.980700,2019-05-16
"서울특별시동작구청",서울특별시 동작구 동작대로35길 25(사당2동 71-2),,쓰레기단속,1,,,,,02-820-2906,37.491170,126.980790,2019-05-16
"서울특별시동작구청",서울특별시 동작구 사당로23길 242(사당3동 708-926),,쓰레기단속,1,,,,,02-820-2906,37.492300,126.968770,2019-05-16
"서울특별시동작구청",서울특별시 동작구 사당로16길 28(사당4동 277-39),,쓰레기단속,1,,,,,02-820-2906,37.481760,126.971330,2019-05-16
"서울특별시동작구청",서울특별시 동작구 사당로16다길 95(사당동 230-9),,쓰레기단속,1,,,,,02-820-2906,37.484490,126.968230,2019-05-16
"서울특별시동작구청",서울특별시 동작구 대방동1길 29(대방동 396-16),,쓰레기단속,1,,,,,02-820-2906,37.500280,126.924470,2019-05-16
"서울특별시동작구청",서울특별시 동작구 신대방2길 52(신대방1동 600-37),,쓰레기단속,1,,,,,02-820-2906,37.488920,126.911990,2019-05-16
"서울특별시동작구청",서울특별시 동작구 국사봉길 22(신대방2동 338-23),,쓰레기단속,1,,,,,02-820-2906,37.498190,126.929260,2019-05-16
"서울특별시동작구청",서울특별시 동작구 서달로13길 17(흑석동 181-23),,쓰레기단속,1,,,,,02-820-2906,37.508440,126.961990,2019-05-16
"서울특별시동작구청",서울특별시 동작구 노량진로 6길 53앞(노량진2동 284-48 청수탕앞),,쓰레기단속,1,,,,,02-820-2906,37.510480,126.936050,2019-05-16
"서울특별시동작구청",서울특별시 동작구 현충로 106길 (흑석동 9-787),,쓰레기단속,1,,,,,02-820-2906,37.507270,126.965210,2019-05-16
"서울특별시동작구청",서울특별시 동작구 현충로 10길 91 앞(흑석동 281-4),,쓰레기단속,1,,,,,02-820-2906,37.504430,126.969340,2019-05-16
"서울특별시동작구청",서울특별시 동작구 서달로 1752 흑석빗물펌프장(외수문),,기타,9,,,,,02-820-2906,37.508280,126.963080,2019-05-16
"서울특별시동작구청",서울특별시 동작구 노량진로23가길 20 본동빗물펌프장(입구),,기타,4,,,,,02-820-2906,37.515050,126.951040,2019-05-16
"서울특별시동작구청",서울특별시 동작구 노량진로17길 44 노량진빗물펌프장(외수위),,기타,8,,,,,02-820-2906,37.516170,126.944120,2019-05-16
"서울특별시동작구청",서울특별시 동작구 노들로 6180 대방빗물펌프장(구제진기),,기타,9,,,,,02-820-2906,37.514320,126.930690,2019-05-16
"서울특별시동작구청",서울특별시 동작구 신대방1길 109 신대방빗물펌프장(1수문),,기타,2,,,,,02-820-2906,37.485580,126.906980,2019-05-16
"서울특별시동작구청",서울특별시 동작구 신대방2길 12 보라매빗물펌프장(운영실),,기타,2,,,,,02-820-2906,37.487970,126.913310,2019-05-16
"서울특별시동작구청",서울특별시 동작구 노량진로 20-2 대방지하보도,,기타,6,,,,,02-820-2906,37.513330,126.926880,2019-05-16
"서울특별시동작구청",서울특별시 동작구 노량진로32길 14-7 용양봉저정,,기타,5,,,,,02-820-2906,37.512860,126.955790,2019-05-16
"서울특별시동작구청",서울특별시 동작구 상도로53길 39 실로암교회 옆 엘리베이터,,기타,1,,,,,02-820-2906,37.500580,126.953530,2019-05-16
"서울특별시동작구청",서울특별시 동작구 동작대로45길 22 갯마을지하보도,,기타,3,,,,,02-820-2906,37.497300,126.982790,2019-05-16
"서울특별시동작구청",서울특별시 동작구 동작대로 9 (사당역 8번출구),,기타,1,,,,,02-820-2906,37.477320,126.981600,2019-05-16
"서울특별시동작구청",서울특별시 동작구 신대방1길 109,,기타,1,,,,,02-820-2906,37.484970,126.905830,2019-05-16
"서울특별시동작구청",서울특별시 동작구 대림로 19,,기타,1,,,,,02-820-2906,37.486950,126.912030,2019-05-16
"서울특별시동작구청",서울특별시 동작구 신대방2길 14,,기타,1,,,,,02-820-2906,37.489110,126.915490,2019-05-16
"서울특별시동작구청",서울특별시 동작구 여의대방로20길 33,,기타,1,,,,,02-820-2906,37.489890,126.917100,2019-05-16
